$GPRMC,070346.000,A,5547.449,N,04906.854,E,0.00,0.00,270716,,*08
$GPGGA,070346.000,5547.449,N,04906.854,E,1,00,3.0,64.000,M,0.0,M,,*53
$GPGSA,A,3,,,,,,,,,,,,,0.0,3.0,0.0*31
$GPRMC,070347.000,A,5547.449,N,04906.853,E,0.00,0.00,270716,,*0E
$GPGGA,070347.000,5547.449,N,04906.853,E,1,00,3.0,64.000,M,0.0,M,,*55
$GPGSA,A,3,,,,,,,,,,,,,0.0,3.0,0.0*31
$GPRMC,070347.000,A,5547.448,N,04906.853,E,0.00,0.00,270716,,*0F
$GPGGA,070347.000,5547.448,N,04906.853,E,1,00,3.0,64.000,M,0.0,M,,*54
$GPGSA,A,3,,,,,,,,,,,,,0.0,3.0,0.0*31
$GPRMC,070349.000,A,5547.448,N,04906.853,E,0.00,0.00,270716,,*01
$GPGGA,070349.000,5547.448,N,04906.853,E,1,00,3.0,65.000,M,0.0,M,,*5B
$GPGSA,A,3,,,,,,,,,,,,,0.0,3.0,0.0*31
$GPRMC,070350.000,A,5547.447,N,04906.852,E,0.00,0.00,270716,,*07
$GPGGA,070350.000,5547.447,N,04906.852,E,1,00,3.0,65.000,M,0.0,M,,*5D
$GPGSA,A,3,,,,,,,,,,,,,0.0,3.0,0.0*31
$GPRMC,070351.000,A,5547.447,N,04906.850,E,0.00,0.00,270716,,*04
$GPGGA,070351.000,5547.447,N,04906.850,E,1,00,4.0,65.000,M,0.0,M,,*59
$GPGSA,A,3,,,,,,,,,,,,,0.0,4.0,0.0*36
$GPRMC,070352.000,A,5547.447,N,04906.850,E,0.00,0.00,270716,,*07
$GPGGA,070352.000,5547.447,N,04906.850,E,1,00,4.0,66.000,M,0.0,M,,*59
$GPGSA,A,3,,,,,,,,,,,,,0.0,4.0,0.0*36
$GPRMC,070353.000,A,5547.447,N,04906.849,E,0.00,0.00,270716,,*0E
$GPGGA,070353.000,5547.447,N,04906.849,E,1,00,5.0,66.000,M,0.0,M,,*51
$GPGSA,A,3,,,,,,,,,,,,,0.0,5.0,0.0*37
$GPRMC,070353.000,A,5547.445,N,04906.850,E,0.00,0.00,270716,,*04
$GPGGA,070353.000,5547.445,N,04906.850,E,1,00,5.0,67.000,M,0.0,M,,*5A
$GPGSA,A,3,,,,,,,,,,,,,0.0,5.0,0.0*37
$GPRMC,070355.000,A,5547.445,N,04906.849,E,0.00,0.00,270716,,*0A
$GPGGA,070355.000,5547.445,N,04906.849,E,1,00,6.0,66.000,M,0.0,M,,*56
$GPGSA,A,3,,,,,,,,,,,,,0.0,6.0,0.0*34
$GPRMC,070356.000,A,5547.444,N,04906.847,E,0.00,0.00,270716,,*06
$GPGGA,070356.000,5547.444,N,04906.847,E,1,00,6.0,66.000,M,0.0,M,,*5A
$GPGSA,A,3,,,,,,,,,,,,,0.0,6.0,0.0*34
$GPRMC,070357.000,A,5547.444,N,04906.846,E,0.00,0.00,270716,,*06
$GPGGA,070357.000,5547.444,N,04906.846,E,1,00,6.0,66.000,M,0.0,M,,*5A
$GPGSA,A,3,,,,,,,,,,,,,0.0,6.0,0.0*34
$GPRMC,070358.000,A,5547.442,N,04906.844,E,0.00,0.00,270716,,*0D
$GPGGA,070358.000,5547.442,N,04906.844,E,1,00,5.0,66.000,M,0.0,M,,*52
$GPGSA,A,3,,,,,,,,,,,,,0.0,5.0,0.0*37
$GPRMC,070359.000,A,5547.443,N,04906.843,E,0.00,0.00,270716,,*0A
$GPGGA,070359.000,5547.443,N,04906.843,E,1,00,5.0,65.000,M,0.0,M,,*56
$GPGSA,A,3,,,,,,,,,,,,,0.0,5.0,0.0*37
$GPRMC,070400.000,A,5547.442,N,04906.841,E,0.00,0.00,270716,,*02
$GPGGA,070400.000,5547.442,N,04906.841,E,1,00,5.0,64.000,M,0.0,M,,*5F
$GPGSA,A,3,,,,,,,,,,,,,0.0,5.0,0.0*37
$GPRMC,070401.000,A,5547.441,N,04906.841,E,0.00,0.00,270716,,*00
$GPGGA,070401.000,5547.441,N,04906.841,E,1,00,5.0,64.000,M,0.0,M,,*5D
$GPGSA,A,3,,,,,,,,,,,,,0.0,5.0,0.0*37
$GPRMC,070402.000,A,5547.440,N,04906.839,E,0.00,0.00,270716,,*0D
$GPGGA,070402.000,5547.440,N,04906.839,E,1,00,5.0,64.000,M,0.0,M,,*50
$GPGSA,A,3,,,,,,,,,,,,,0.0,5.0,0.0*37
$GPRMC,070403.000,A,5547.439,N,04906.838,E,0.00,0.00,270716,,*03
$GPGGA,070403.000,5547.439,N,04906.838,E,1,00,5.0,64.000,M,0.0,M,,*5E
$GPGSA,A,3,,,,,,,,,,,,,0.0,5.0,0.0*37
$GPRMC,070403.000,A,5547.440,N,04906.837,E,0.00,0.00,270716,,*02
$GPGGA,070403.000,5547.440,N,04906.837,E,1,00,6.0,62.000,M,0.0,M,,*5A
$GPGSA,A,3,,,,,,,,,,,,,0.0,6.0,0.0*34
$GPRMC,070405.000,A,5547.440,N,04906.835,E,0.00,0.00,270716,,*06
$GPGGA,070405.000,5547.440,N,04906.835,E,1,00,6.0,60.000,M,0.0,M,,*5C
$GPGSA,A,3,,,,,,,,,,,,,0.0,6.0,0.0*34
$GPRMC,070406.000,A,5547.440,N,04906.835,E,0.00,0.00,270716,,*05
$GPGGA,070406.000,5547.440,N,04906.835,E,1,00,6.0,59.000,M,0.0,M,,*55
$GPGSA,A,3,,,,,,,,,,,,,0.0,6.0,0.0*34
$GPRMC,070407.000,A,5547.439,N,04906.834,E,0.00,0.00,270716,,*0B
$GPGGA,070407.000,5547.439,N,04906.834,E,1,00,6.0,59.000,M,0.0,M,,*5B
$GPGSA,A,3,,,,,,,,,,,,,0.0,6.0,0.0*34
$GPRMC,070408.000,A,5547.440,N,04906.834,E,0.00,0.00,270716,,*0A
$GPGGA,070408.000,5547.440,N,04906.834,E,1,00,6.0,59.000,M,0.0,M,,*5A
$GPGSA,A,3,,,,,,,,,,,,,0.0,6.0,0.0*34
$GPRMC,070409.000,A,5547.440,N,04906.832,E,0.00,0.00,270716,,*0D
$GPGGA,070409.000,5547.440,N,04906.832,E,1,00,6.0,58.000,M,0.0,M,,*5C
$GPGSA,A,3,,,,,,,,,,,,,0.0,6.0,0.0*34
$GPRMC,070410.000,A,5547.439,N,04906.833,E,0.00,0.00,270716,,*0A
$GPGGA,070410.000,5547.439,N,04906.833,E,1,00,7.0,58.000,M,0.0,M,,*5A
$GPGSA,A,3,,,,,,,,,,,,,0.0,7.0,0.0*35
$GPRMC,070411.000,A,5547.437,N,04906.833,E,0.00,0.00,270716,,*05
$GPGGA,070411.000,5547.437,N,04906.833,E,1,00,6.0,58.000,M,0.0,M,,*54
$GPGSA,A,3,,,,,,,,,,,,,0.0,6.0,0.0*34
$GPRMC,070412.000,A,5547.437,N,04906.832,E,0.00,0.00,270716,,*07
$GPGGA,070412.000,5547.437,N,04906.832,E,1,00,6.0,57.000,M,0.0,M,,*59
$GPGSA,A,3,,,,,,,,,,,,,0.0,6.0,0.0*34
$GPRMC,070413.000,A,5547.436,N,04906.832,E,0.00,0.00,270716,,*07
$GPGGA,070413.000,5547.436,N,04906.832,E,1,00,6.0,58.000,M,0.0,M,,*56
$GPGSA,A,3,,,,,,,,,,,,,0.0,6.0,0.0*34
$GPRMC,070414.000,A,5547.435,N,04906.832,E,0.00,0.00,270716,,*03
$GPGGA,070414.000,5547.435,N,04906.832,E,1,00,6.0,58.000,M,0.0,M,,*52
$GPGSA,A,3,,,,,,,,,,,,,0.0,6.0,0.0*34
$GPRMC,070415.000,A,5547.434,N,04906.832,E,0.00,0.00,270716,,*03
$GPGGA,070415.000,5547.434,N,04906.832,E,1,00,6.0,59.000,M,0.0,M,,*53
$GPGSA,A,3,,,,,,,,,,,,,0.0,6.0,0.0*34
$GPRMC,070416.000,A,5547.433,N,04906.831,E,0.00,0.00,270716,,*04
$GPGGA,070416.000,5547.433,N,04906.831,E,1,00,6.0,59.000,M,0.0,M,,*54
$GPGSA,A,3,,,,,,,,,,,,,0.0,6.0,0.0*34
$GPRMC,070417.000,A,5547.432,N,04906.831,E,0.00,0.00,270716,,*04
$GPGGA,070417.000,5547.432,N,04906.831,E,1,00,6.0,61.000,M,0.0,M,,*5F
$GPGSA,A,3,,,,,,,,,,,,,0.0,6.0,0.0*34
$GPRMC,070418.000,A,5547.433,N,04906.832,E,0.00,0.00,270716,,*09
$GPGGA,070418.000,5547.433,N,04906.832,E,1,00,6.0,58.000,M,0.0,M,,*58
$GPGSA,A,3,,,,,,,,,,,,,0.0,6.0,0.0*34
$GPRMC,070419.000,A,5547.434,N,04906.835,E,0.00,0.00,270716,,*08
$GPGGA,070419.000,5547.434,N,04906.835,E,1,00,7.0,58.000,M,0.0,M,,*58
$GPGSA,A,3,,,,,,,,,,,,,0.0,7.0,0.0*35
$GPRMC,070420.000,A,5547.433,N,04906.834,E,0.00,0.00,270716,,*04
$GPGGA,070420.000,5547.433,N,04906.834,E,1,00,7.0,58.000,M,0.0,M,,*54
$GPGSA,A,3,,,,,,,,,,,,,0.0,7.0,0.0*35
$GPRMC,070421.000,A,5547.432,N,04906.833,E,0.00,0.00,270716,,*03
$GPGGA,070421.000,5547.432,N,04906.833,E,1,00,8.0,59.000,M,0.0,M,,*5D
$GPGSA,A,3,,,,,,,,,,,,,0.0,8.0,0.0*3A
$GPRMC,070422.000,A,5547.431,N,04906.832,E,0.00,0.00,270716,,*02
$GPGGA,070422.000,5547.431,N,04906.832,E,1,00,8.0,60.000,M,0.0,M,,*56
$GPGSA,A,3,,,,,,,,,,,,,0.0,8.0,0.0*3A
$GPRMC,070423.000,A,5547.429,N,04906.831,E,0.00,0.00,270716,,*09
$GPGGA,070423.000,5547.429,N,04906.831,E,1,00,8.0,59.000,M,0.0,M,,*57
$GPGSA,A,3,,,,,,,,,,,,,0.0,8.0,0.0*3A
$GPRMC,070424.000,A,5547.429,N,04906.831,E,0.00,0.00,270716,,*0E
$GPGGA,070424.000,5547.429,N,04906.831,E,1,00,8.0,60.000,M,0.0,M,,*5A
$GPGSA,A,3,,,,,,,,,,,,,0.0,8.0,0.0*3A
$GPRMC,070425.000,A,5547.429,N,04906.832,E,0.00,0.00,270716,,*0C
$GPGGA,070425.000,5547.429,N,04906.832,E,1,00,7.0,59.000,M,0.0,M,,*5D
$GPGSA,A,3,,,,,,,,,,,,,0.0,7.0,0.0*35
$GPRMC,070426.000,A,5547.427,N,04906.830,E,0.00,0.00,270716,,*03
$GPGGA,070426.000,5547.427,N,04906.830,E,1,00,8.0,60.000,M,0.0,M,,*57
$GPGSA,A,3,,,,,,,,,,,,,0.0,8.0,0.0*3A
$GPRMC,070427.000,A,5547.429,N,04906.834,E,0.00,0.00,270716,,*08
$GPGGA,070427.000,5547.429,N,04906.834,E,1,00,8.0,60.000,M,0.0,M,,*5C
$GPGSA,A,3,,,,,,,,,,,,,0.0,8.0,0.0*3A
$GPRMC,070428.000,A,5547.428,N,04906.833,E,0.00,0.00,270716,,*01
$GPGGA,070428.000,5547.428,N,04906.833,E,1,00,9.0,60.000,M,0.0,M,,*54
$GPGSA,A,3,,,,,,,,,,,,,0.0,9.0,0.0*3B
$GPRMC,070429.000,A,5547.426,N,04906.830,E,0.00,0.00,270716,,*0D
$GPGGA,070429.000,5547.426,N,04906.830,E,1,00,8.0,61.000,M,0.0,M,,*58
$GPGSA,A,3,,,,,,,,,,,,,0.0,8.0,0.0*3A
$GPRMC,070430.000,A,5547.425,N,04906.828,E,0.00,0.00,270716,,*0F
$GPGGA,070430.000,5547.425,N,04906.828,E,1,00,8.0,61.000,M,0.0,M,,*5A
$GPGSA,A,3,,,,,,,,,,,,,0.0,8.0,0.0*3A
$GPRMC,070431.000,A,5547.423,N,04906.824,E,0.00,0.00,270716,,*04
$GPGGA,070431.000,5547.423,N,04906.824,E,1,00,8.0,62.000,M,0.0,M,,*52
$GPGSA,A,3,,,,,,,,,,,,,0.0,8.0,0.0*3A
$GPRMC,070432.000,A,5547.422,N,04906.822,E,0.00,0.00,270716,,*00
$GPGGA,070432.000,5547.422,N,04906.822,E,1,00,8.0,61.000,M,0.0,M,,*55
$GPGSA,A,3,,,,,,,,,,,,,0.0,8.0,0.0*3A
$GPRMC,070433.000,A,5547.422,N,04906.822,E,0.00,0.00,270716,,*01
$GPGGA,070433.000,5547.422,N,04906.822,E,1,00,7.0,60.000,M,0.0,M,,*5A
$GPGSA,A,3,,,,,,,,,,,,,0.0,7.0,0.0*35
$GPRMC,070434.000,A,5547.422,N,04906.823,E,0.00,0.00,270716,,*07
$GPGGA,070434.000,5547.422,N,04906.823,E,1,00,7.0,60.000,M,0.0,M,,*5C
$GPGSA,A,3,,,,,,,,,,,,,0.0,7.0,0.0*35
$GPRMC,070435.000,A,5547.421,N,04906.821,E,0.00,0.00,270716,,*07
$GPGGA,070435.000,5547.421,N,04906.821,E,1,00,7.0,60.000,M,0.0,M,,*5C
$GPGSA,A,3,,,,,,,,,,,,,0.0,7.0,0.0*35
$GPRMC,070436.000,A,5547.420,N,04906.819,E,0.00,0.00,270716,,*0E
$GPGGA,070436.000,5547.420,N,04906.819,E,1,00,7.0,61.000,M,0.0,M,,*54
$GPGSA,A,3,,,,,,,,,,,,,0.0,7.0,0.0*35
$GPRMC,070437.000,A,5547.419,N,04906.820,E,0.00,0.00,270716,,*0F
$GPGGA,070437.000,5547.419,N,04906.820,E,1,00,7.0,60.000,M,0.0,M,,*54
$GPGSA,A,3,,,,,,,,,,,,,0.0,7.0,0.0*35
$GPRMC,070438.000,A,5547.418,N,04906.817,E,0.00,0.00,270716,,*05
$GPGGA,070438.000,5547.418,N,04906.817,E,1,00,8.0,60.000,M,0.0,M,,*51
$GPGSA,A,3,,,,,,,,,,,,,0.0,8.0,0.0*3A
$GPRMC,070439.000,A,5547.417,N,04906.816,E,0.00,0.00,270716,,*0A
$GPGGA,070439.000,5547.417,N,04906.816,E,1,00,8.0,61.000,M,0.0,M,,*5F
$GPGSA,A,3,,,,,,,,,,,,,0.0,8.0,0.0*3A
$GPRMC,070440.000,A,5547.416,N,04906.815,E,0.00,0.00,270716,,*06
$GPGGA,070440.000,5547.416,N,04906.815,E,1,00,9.0,61.000,M,0.0,M,,*52
$GPGSA,A,3,,,,,,,,,,,,,0.0,9.0,0.0*3B
$GPRMC,070441.000,A,5547.416,N,04906.814,E,0.00,0.00,270716,,*06
$GPGGA,070441.000,5547.416,N,04906.814,E,1,00,9.0,63.000,M,0.0,M,,*50
$GPGSA,A,3,,,,,,,,,,,,,0.0,9.0,0.0*3B
$GPRMC,070442.000,A,5547.416,N,04906.815,E,0.00,0.00,270716,,*04
$GPGGA,070442.000,5547.416,N,04906.815,E,1,00,8.0,64.000,M,0.0,M,,*54
$GPGSA,A,3,,,,,,,,,,,,,0.0,8.0,0.0*3A
$GPRMC,070443.000,A,5547.415,N,04906.813,E,0.00,0.00,270716,,*00
$GPGGA,070443.000,5547.415,N,04906.813,E,1,00,8.0,65.000,M,0.0,M,,*51
$GPGSA,A,3,,,,,,,,,,,,,0.0,8.0,0.0*3A
$GPRMC,070444.000,A,5547.416,N,04906.815,E,0.00,0.00,270716,,*02
$GPGGA,070444.000,5547.416,N,04906.815,E,1,00,7.0,63.000,M,0.0,M,,*5A
$GPGSA,A,3,,,,,,,,,,,,,0.0,7.0,0.0*35
$GPRMC,070445.000,A,5547.415,N,04906.814,E,0.00,0.00,270716,,*01
$GPGGA,070445.000,5547.415,N,04906.814,E,1,00,6.0,63.000,M,0.0,M,,*58
$GPGSA,A,3,,,,,,,,,,,,,0.0,6.0,0.0*34
$GPRMC,070446.000,A,5547.415,N,04906.814,E,0.00,0.00,270716,,*02
$GPGGA,070446.000,5547.415,N,04906.814,E,1,00,6.0,63.000,M,0.0,M,,*5B
$GPGSA,A,3,,,,,,,,,,,,,0.0,6.0,0.0*34
$GPRMC,070447.000,A,5547.415,N,04906.814,E,0.00,0.00,270716,,*03
$GPGGA,070447.000,5547.415,N,04906.814,E,1,00,6.0,64.000,M,0.0,M,,*5D
$GPGSA,A,3,,,,,,,,,,,,,0.0,6.0,0.0*34
$GPRMC,070448.000,A,5547.415,N,04906.815,E,0.00,0.00,270716,,*0D
$GPGGA,070448.000,5547.415,N,04906.815,E,1,00,10.0,64.000,M,0.0,M,,*64
$GPGSA,A,3,,,,,,,,,,,,,0.0,10.0,0.0*03
$GPRMC,070449.000,A,5547.414,N,04906.815,E,0.00,0.00,270716,,*0D
$GPGGA,070449.000,5547.414,N,04906.815,E,1,00,11.0,64.000,M,0.0,M,,*65
$GPGSA,A,3,,,,,,,,,,,,,0.0,11.0,0.0*02
$GPRMC,070450.000,A,5547.412,N,04906.814,E,0.00,0.00,270716,,*02
$GPGGA,070450.000,5547.412,N,04906.814,E,1,00,11.0,64.000,M,0.0,M,,*6A
$GPGSA,A,3,,,,,,,,,,,,,0.0,11.0,0.0*02
$GPRMC,070451.000,A,5547.410,N,04906.813,E,0.00,0.00,270716,,*06
$GPGGA,070451.000,5547.410,N,04906.813,E,1,00,11.0,64.000,M,0.0,M,,*6E
$GPGSA,A,3,,,,,,,,,,,,,0.0,11.0,0.0*02
$GPRMC,070452.000,A,5547.410,N,04906.812,E,0.00,0.00,270716,,*04
$GPGGA,070452.000,5547.410,N,04906.812,E,1,00,12.0,65.000,M,0.0,M,,*6E
$GPGSA,A,3,,,,,,,,,,,,,0.0,12.0,0.0*01
$GPRMC,070453.000,A,5547.409,N,04906.809,E,0.00,0.00,270716,,*07
$GPGGA,070453.000,5547.409,N,04906.809,E,1,00,12.0,65.000,M,0.0,M,,*6D
$GPGSA,A,3,,,,,,,,,,,,,0.0,12.0,0.0*01
$GPRMC,070454.000,A,5547.409,N,04906.810,E,0.00,0.00,270716,,*08
$GPGGA,070454.000,5547.409,N,04906.810,E,1,00,12.0,64.000,M,0.0,M,,*63
$GPGSA,A,3,,,,,,,,,,,,,0.0,12.0,0.0*01
$GPRMC,070455.000,A,5547.408,N,04906.809,E,0.00,0.00,270716,,*00
$GPGGA,070455.000,5547.408,N,04906.809,E,1,00,12.0,65.000,M,0.0,M,,*6A
$GPGSA,A,3,,,,,,,,,,,,,0.0,12.0,0.0*01
$GPRMC,070456.000,A,5547.408,N,04906.807,E,0.00,0.00,270716,,*0D
$GPGGA,070456.000,5547.408,N,04906.807,E,1,00,11.0,65.000,M,0.0,M,,*64
$GPGSA,A,3,,,,,,,,,,,,,0.0,11.0,0.0*02
$GPRMC,070457.000,A,5547.409,N,04906.808,E,0.00,0.00,270716,,*02
$GPGGA,070457.000,5547.409,N,04906.808,E,1,00,11.0,67.000,M,0.0,M,,*69
$GPGSA,A,3,,,,,,,,,,,,,0.0,11.0,0.0*02
$GPRMC,070458.000,A,5547.408,N,04906.806,E,0.00,0.00,270716,,*02
$GPGGA,070458.000,5547.408,N,04906.806,E,1,00,12.0,67.000,M,0.0,M,,*6A
$GPGSA,A,3,,,,,,,,,,,,,0.0,12.0,0.0*01
$GPRMC,070459.000,A,5547.407,N,04906.806,E,0.00,0.00,270716,,*0C
$GPGGA,070459.000,5547.407,N,04906.806,E,1,00,11.0,66.000,M,0.0,M,,*66
$GPGSA,A,3,,,,,,,,,,,,,0.0,11.0,0.0*02
$GPRMC,070500.000,A,5547.407,N,04906.808,E,0.00,0.00,270716,,*0F
$GPGGA,070500.000,5547.407,N,04906.808,E,1,00,12.0,66.000,M,0.0,M,,*66
$GPGSA,A,3,,,,,,,,,,,,,0.0,12.0,0.0*01
$GPRMC,070501.000,A,5547.408,N,04906.809,E,0.00,0.00,270716,,*00
$GPGGA,070501.000,5547.408,N,04906.809,E,1,00,11.0,66.000,M,0.0,M,,*6A
$GPGSA,A,3,,,,,,,,,,,,,0.0,11.0,0.0*02
$GPRMC,070502.000,A,5547.408,N,04906.809,E,0.00,0.00,270716,,*03
$GPGGA,070502.000,5547.408,N,04906.809,E,1,00,11.0,66.000,M,0.0,M,,*69
$GPGSA,A,3,,,,,,,,,,,,,0.0,11.0,0.0*02
$GPRMC,070503.000,A,5547.408,N,04906.809,E,0.00,0.00,270716,,*02
$GPGGA,070503.000,5547.408,N,04906.809,E,1,00,12.0,66.000,M,0.0,M,,*6B
$GPGSA,A,3,,,,,,,,,,,,,0.0,12.0,0.0*01
$GPRMC,070504.000,A,5547.407,N,04906.809,E,0.00,0.00,270716,,*0A
$GPGGA,070504.000,5547.407,N,04906.809,E,1,00,11.0,67.000,M,0.0,M,,*61
$GPGSA,A,3,,,,,,,,,,,,,0.0,11.0,0.0*02
$GPRMC,070505.000,A,5547.407,N,04906.809,E,0.00,0.00,270716,,*0B
$GPGGA,070505.000,5547.407,N,04906.809,E,1,00,11.0,67.000,M,0.0,M,,*60
$GPGSA,A,3,,,,,,,,,,,,,0.0,11.0,0.0*02
$GPRMC,070506.000,A,5547.407,N,04906.809,E,0.00,0.00,270716,,*08
$GPGGA,070506.000,5547.407,N,04906.809,E,1,00,11.0,67.000,M,0.0,M,,*63
$GPGSA,A,3,,,,,,,,,,,,,0.0,11.0,0.0*02
$GPRMC,070507.000,A,5547.407,N,04906.808,E,0.00,0.00,270716,,*08
$GPGGA,070507.000,5547.407,N,04906.808,E,1,00,11.0,65.000,M,0.0,M,,*61
$GPGSA,A,3,,,,,,,,,,,,,0.0,11.0,0.0*02
$GPRMC,070508.000,A,5547.407,N,04906.808,E,0.00,0.00,270716,,*07
$GPGGA,070508.000,5547.407,N,04906.808,E,1,00,11.0,66.000,M,0.0,M,,*6D
$GPGSA,A,3,,,,,,,,,,,,,0.0,11.0,0.0*02
$GPRMC,070509.000,A,5547.407,N,04906.808,E,0.00,0.00,270716,,*06
$GPGGA,070509.000,5547.407,N,04906.808,E,1,00,11.0,66.000,M,0.0,M,,*6C
$GPGSA,A,3,,,,,,,,,,,,,0.0,11.0,0.0*02
$GPRMC,070510.000,A,5547.407,N,04906.808,E,0.00,0.00,270716,,*0E
$GPGGA,070510.000,5547.407,N,04906.808,E,1,00,11.0,66.000,M,0.0,M,,*64
$GPGSA,A,3,,,,,,,,,,,,,0.0,11.0,0.0*02
$GPRMC,070511.000,A,5547.407,N,04906.807,E,0.00,0.00,270716,,*00
$GPGGA,070511.000,5547.407,N,04906.807,E,1,00,10.0,66.000,M,0.0,M,,*6B
$GPGSA,A,3,,,,,,,,,,,,,0.0,10.0,0.0*03
$GPRMC,070512.000,A,5547.407,N,04906.808,E,0.00,0.00,270716,,*0C
$GPGGA,070512.000,5547.407,N,04906.808,E,1,00,10.0,66.000,M,0.0,M,,*67
$GPGSA,A,3,,,,,,,,,,,,,0.0,10.0,0.0*03
$GPRMC,070513.000,A,5547.405,N,04906.805,E,0.00,0.00,270716,,*02
$GPGGA,070513.000,5547.405,N,04906.805,E,1,00,10.0,65.000,M,0.0,M,,*6A
$GPGSA,A,3,,,,,,,,,,,,,0.0,10.0,0.0*03
$GPRMC,070514.000,A,5547.403,N,04906.803,E,0.00,0.00,270716,,*05
$GPGGA,070514.000,5547.403,N,04906.803,E,1,00,10.0,65.000,M,0.0,M,,*6D
$GPGSA,A,3,,,,,,,,,,,,,0.0,10.0,0.0*03
$GPRMC,070515.000,A,5547.401,N,04906.800,E,0.00,0.00,270716,,*05
$GPGGA,070515.000,5547.401,N,04906.800,E,1,00,10.0,64.000,M,0.0,M,,*6C
$GPGSA,A,3,,,,,,,,,,,,,0.0,10.0,0.0*03
$GPRMC,070516.000,A,5547.401,N,04906.799,E,0.00,0.00,270716,,*09
$GPGGA,070516.000,5547.401,N,04906.799,E,1,00,10.0,64.000,M,0.0,M,,*60
$GPGSA,A,3,,,,,,,,,,,,,0.0,10.0,0.0*03
$GPRMC,070517.000,A,5547.399,N,04906.797,E,0.00,0.00,270716,,*00
$GPGGA,070517.000,5547.399,N,04906.797,E,1,00,10.0,65.000,M,0.0,M,,*68
$GPGSA,A,3,,,,,,,,,,,,,0.0,10.0,0.0*03
$GPRMC,070518.000,A,5547.399,N,04906.797,E,0.00,0.00,270716,,*0F
$GPGGA,070518.000,5547.399,N,04906.797,E,1,00,10.0,65.000,M,0.0,M,,*67
$GPGSA,A,3,,,,,,,,,,,,,0.0,10.0,0.0*03
$GPRMC,070519.000,A,5547.399,N,04906.796,E,0.00,0.00,270716,,*0F
$GPGGA,070519.000,5547.399,N,04906.796,E,1,00,10.0,66.000,M,0.0,M,,*64
$GPGSA,A,3,,,,,,,,,,,,,0.0,10.0,0.0*03
$GPRMC,070520.000,A,5547.398,N,04906.795,E,0.00,0.00,270716,,*07
$GPGGA,070520.000,5547.398,N,04906.795,E,1,00,10.0,67.000,M,0.0,M,,*6D
$GPGSA,A,3,,,,,,,,,,,,,0.0,10.0,0.0*03
$GPRMC,070521.000,A,5547.397,N,04906.794,E,0.00,0.00,270716,,*08
$GPGGA,070521.000,5547.397,N,04906.794,E,1,00,10.0,66.000,M,0.0,M,,*63
$GPGSA,A,3,,,,,,,,,,,,,0.0,10.0,0.0*03
$GPRMC,070522.000,A,5547.397,N,04906.794,E,0.00,0.00,270716,,*0B
$GPGGA,070522.000,5547.397,N,04906.794,E,1,00,10.0,68.000,M,0.0,M,,*6E
$GPGSA,A,3,,,,,,,,,,,,,0.0,10.0,0.0*03
$GPRMC,070523.000,A,5547.397,N,04906.796,E,0.00,0.00,270716,,*08
$GPGGA,070523.000,5547.397,N,04906.796,E,1,00,10.0,67.000,M,0.0,M,,*62
$GPGSA,A,3,,,,,,,,,,,,,0.0,10.0,0.0*03
$GPRMC,070524.000,A,5547.398,N,04906.798,E,0.00,0.00,270716,,*0E
$GPGGA,070524.000,5547.398,N,04906.798,E,1,00,10.0,69.000,M,0.0,M,,*6A
$GPGSA,A,3,,,,,,,,,,,,,0.0,10.0,0.0*03
$GPRMC,070525.000,A,5547.397,N,04906.798,E,0.00,0.00,270716,,*00
$GPGGA,070525.000,5547.397,N,04906.798,E,1,00,10.0,69.000,M,0.0,M,,*64
$GPGSA,A,3,,,,,,,,,,,,,0.0,10.0,0.0*03
$GPRMC,070526.000,A,5547.397,N,04906.797,E,0.00,0.00,270716,,*0C
$GPGGA,070526.000,5547.397,N,04906.797,E,1,00,11.0,70.000,M,0.0,M,,*61
$GPGSA,A,3,,,,,,,,,,,,,0.0,11.0,0.0*02
$GPRMC,070527.000,A,5547.397,N,04906.799,E,0.00,0.00,270716,,*03
$GPGGA,070527.000,5547.397,N,04906.799,E,1,00,11.0,68.000,M,0.0,M,,*67
$GPGSA,A,3,,,,,,,,,,,,,0.0,11.0,0.0*02
$GPRMC,070528.000,A,5547.395,N,04906.797,E,0.00,0.00,270716,,*00
$GPGGA,070528.000,5547.395,N,04906.797,E,1,00,11.0,68.000,M,0.0,M,,*64
$GPGSA,A,3,,,,,,,,,,,,,0.0,11.0,0.0*02
$GPRMC,070529.000,A,5547.395,N,04906.796,E,0.00,0.00,270716,,*00
$GPGGA,070529.000,5547.395,N,04906.796,E,1,00,12.0,67.000,M,0.0,M,,*68
$GPGSA,A,3,,,,,,,,,,,,,0.0,12.0,0.0*01
$GPRMC,070530.000,A,5547.393,N,04906.794,E,0.00,0.00,270716,,*0C
$GPGGA,070530.000,5547.393,N,04906.794,E,1,00,11.0,67.000,M,0.0,M,,*67
$GPGSA,A,3,,,,,,,,,,,,,0.0,11.0,0.0*02
$GPRMC,070531.000,A,5547.393,N,04906.795,E,0.00,0.00,270716,,*0C
$GPGGA,070531.000,5547.393,N,04906.795,E,1,00,10.0,69.000,M,0.0,M,,*68
$GPGSA,A,3,,,,,,,,,,,,,0.0,10.0,0.0*03
$GPRMC,070532.000,A,5547.392,N,04906.793,E,0.00,0.00,270716,,*08
$GPGGA,070532.000,5547.392,N,04906.793,E,1,00,10.0,69.000,M,0.0,M,,*6C
$GPGSA,A,3,,,,,,,,,,,,,0.0,10.0,0.0*03
$GPRMC,070533.000,A,5547.392,N,04906.793,E,0.00,0.00,270716,,*09
$GPGGA,070533.000,5547.392,N,04906.793,E,1,00,10.0,70.000,M,0.0,M,,*65
$GPGSA,A,3,,,,,,,,,,,,,0.0,10.0,0.0*03
$GPRMC,070534.000,A,5547.392,N,04906.792,E,0.00,0.00,270716,,*0F
$GPGGA,070534.000,5547.392,N,04906.792,E,1,00,10.0,70.000,M,0.0,M,,*63
$GPGSA,A,3,,,,,,,,,,,,,0.0,10.0,0.0*03
$GPRMC,070535.000,A,5547.392,N,04906.793,E,0.00,0.00,270716,,*0F
$GPGGA,070535.000,5547.392,N,04906.793,E,1,00,10.0,68.000,M,0.0,M,,*6A
$GPGSA,A,3,,,,,,,,,,,,,0.0,10.0,0.0*03
$GPRMC,070536.000,A,5547.391,N,04906.793,E,0.00,0.00,270716,,*0F
$GPGGA,070536.000,5547.391,N,04906.793,E,1,00,11.0,68.000,M,0.0,M,,*6B
$GPGSA,A,3,,,,,,,,,,,,,0.0,11.0,0.0*02
$GPRMC,070537.000,A,5547.391,N,04906.792,E,0.00,0.00,270716,,*0F
$GPGGA,070537.000,5547.391,N,04906.792,E,1,00,12.0,66.000,M,0.0,M,,*66
$GPGSA,A,3,,,,,,,,,,,,,0.0,12.0,0.0*01
$GPRMC,070538.000,A,5547.391,N,04906.792,E,0.00,0.00,270716,,*00
$GPGGA,070538.000,5547.391,N,04906.792,E,1,00,12.0,67.000,M,0.0,M,,*68
$GPGSA,A,3,,,,,,,,,,,,,0.0,12.0,0.0*01
$GPRMC,070539.000,A,5547.389,N,04906.789,E,0.00,0.00,270716,,*02
$GPGGA,070539.000,5547.389,N,04906.789,E,1,00,12.0,66.000,M,0.0,M,,*6B
$GPGSA,A,3,,,,,,,,,,,,,0.0,12.0,0.0*01
$GPRMC,070540.000,A,5547.390,N,04906.791,E,0.00,0.00,270716,,*0D
$GPGGA,070540.000,5547.390,N,04906.791,E,1,00,11.0,66.000,M,0.0,M,,*67
$GPGSA,A,3,,,,,,,,,,,,,0.0,11.0,0.0*02
$GPRMC,070541.000,A,5547.390,N,04906.790,E,0.00,0.00,270716,,*0D
$GPGGA,070541.000,5547.390,N,04906.790,E,1,00,11.0,67.000,M,0.0,M,,*66
$GPGSA,A,3,,,,,,,,,,,,,0.0,11.0,0.0*02
$GPRMC,070542.000,A,5547.390,N,04906.788,E,0.00,0.00,270716,,*07
$GPGGA,070542.000,5547.390,N,04906.788,E,1,00,10.0,67.000,M,0.0,M,,*6D
$GPGSA,A,3,,,,,,,,,,,,,0.0,10.0,0.0*03
$GPRMC,070543.000,A,5547.390,N,04906.788,E,0.00,0.00,270716,,*06
$GPGGA,070543.000,5547.390,N,04906.788,E,1,00,10.0,67.000,M,0.0,M,,*6C
$GPGSA,A,3,,,,,,,,,,,,,0.0,10.0,0.0*03
$GPRMC,070544.000,A,5547.390,N,04906.788,E,0.00,0.00,270716,,*01
$GPGGA,070544.000,5547.390,N,04906.788,E,1,00,10.0,69.000,M,0.0,M,,*65
$GPGSA,A,3,,,,,,,,,,,,,0.0,10.0,0.0*03
$GPRMC,070545.000,A,5547.390,N,04906.789,E,0.00,0.00,270716,,*01
$GPGGA,070545.000,5547.390,N,04906.789,E,1,00,10.0,68.000,M,0.0,M,,*64
$GPGSA,A,3,,,,,,,,,,,,,0.0,10.0,0.0*03
$GPRMC,070546.000,A,5547.389,N,04906.789,E,0.00,0.00,270716,,*0A
$GPGGA,070546.000,5547.389,N,04906.789,E,1,00,10.0,66.000,M,0.0,M,,*61
$GPGSA,A,3,,,,,,,,,,,,,0.0,10.0,0.0*03
$GPRMC,070547.000,A,5547.388,N,04906.788,E,0.00,0.00,270716,,*0B
$GPGGA,070547.000,5547.388,N,04906.788,E,1,00,10.0,66.000,M,0.0,M,,*60
$GPGSA,A,3,,,,,,,,,,,,,0.0,10.0,0.0*03
$GPRMC,070548.000,A,5547.388,N,04906.791,E,0.00,0.00,270716,,*0C
$GPGGA,070548.000,5547.388,N,04906.791,E,1,00,10.0,64.000,M,0.0,M,,*65
$GPGSA,A,3,,,,,,,,,,,,,0.0,10.0,0.0*03
$GPRMC,070549.000,A,5547.387,N,04906.791,E,0.00,0.00,270716,,*02
$GPGGA,070549.000,5547.387,N,04906.791,E,1,00,10.0,63.000,M,0.0,M,,*6C
$GPGSA,A,3,,,,,,,,,,,,,0.0,10.0,0.0*03
$GPRMC,070550.000,A,5547.387,N,04906.790,E,0.00,0.00,270716,,*0B
$GPGGA,070550.000,5547.387,N,04906.790,E,1,00,10.0,63.000,M,0.0,M,,*65
$GPGSA,A,3,,,,,,,,,,,,,0.0,10.0,0.0*03
$GPRMC,070551.000,A,5547.386,N,04906.789,E,0.00,0.00,270716,,*03
$GPGGA,070551.000,5547.386,N,04906.789,E,1,00,10.0,62.000,M,0.0,M,,*6C
$GPGSA,A,3,,,,,,,,,,,,,0.0,10.0,0.0*03
$GPRMC,070552.000,A,5547.385,N,04906.788,E,0.00,0.00,270716,,*02
$GPGGA,070552.000,5547.385,N,04906.788,E,1,00,11.0,61.000,M,0.0,M,,*6F
$GPGSA,A,3,,,,,,,,,,,,,0.0,11.0,0.0*02
$GPRMC,070553.000,A,5547.385,N,04906.786,E,0.00,0.00,270716,,*0D
$GPGGA,070553.000,5547.385,N,04906.786,E,1,00,10.0,59.000,M,0.0,M,,*6A
$GPGSA,A,3,,,,,,,,,,,,,0.0,10.0,0.0*03
$GPRMC,070554.000,A,5547.383,N,04906.784,E,0.00,0.00,270716,,*0E
$GPGGA,070554.000,5547.383,N,04906.784,E,1,00,10.0,59.000,M,0.0,M,,*69
$GPGSA,A,3,,,,,,,,,,,,,0.0,10.0,0.0*03
$GPRMC,070555.000,A,5547.383,N,04906.783,E,0.00,0.00,270716,,*08
$GPGGA,070555.000,5547.383,N,04906.783,E,1,00,10.0,59.000,M,0.0,M,,*6F
$GPGSA,A,3,,,,,,,,,,,,,0.0,10.0,0.0*03
$GPRMC,070556.000,A,5547.382,N,04906.782,E,0.00,0.00,270716,,*0B
$GPGGA,070556.000,5547.382,N,04906.782,E,1,00,10.0,60.000,M,0.0,M,,*66
$GPGSA,A,3,,,,,,,,,,,,,0.0,10.0,0.0*03
$GPRMC,070557.000,A,5547.381,N,04906.780,E,0.00,0.00,270716,,*0B
$GPGGA,070557.000,5547.381,N,04906.780,E,1,00,10.0,60.000,M,0.0,M,,*66
$GPGSA,A,3,,,,,,,,,,,,,0.0,10.0,0.0*03
$GPRMC,070558.000,A,5547.381,N,04906.780,E,0.00,0.00,270716,,*04
$GPGGA,070558.000,5547.381,N,04906.780,E,1,00,10.0,60.000,M,0.0,M,,*69
$GPGSA,A,3,,,,,,,,,,,,,0.0,10.0,0.0*03
$GPRMC,070559.000,A,5547.380,N,04906.780,E,0.00,0.00,270716,,*04
$GPGGA,070559.000,5547.380,N,04906.780,E,1,00,10.0,58.000,M,0.0,M,,*62
$GPGSA,A,3,,,,,,,,,,,,,0.0,10.0,0.0*03
$GPRMC,070600.000,A,5547.380,N,04906.782,E,0.00,0.00,270716,,*09
$GPGGA,070600.000,5547.380,N,04906.782,E,1,00,10.0,59.000,M,0.0,M,,*6E
$GPGSA,A,3,,,,,,,,,,,,,0.0,10.0,0.0*03
$GPRMC,070601.000,A,5547.380,N,04906.781,E,0.00,0.00,270716,,*0B
$GPGGA,070601.000,5547.380,N,04906.781,E,1,00,10.0,58.000,M,0.0,M,,*6D
$GPGSA,A,3,,,,,,,,,,,,,0.0,10.0,0.0*03
$GPRMC,070602.000,A,5547.380,N,04906.779,E,0.00,0.00,270716,,*0F
$GPGGA,070602.000,5547.380,N,04906.779,E,1,00,10.0,60.000,M,0.0,M,,*62
$GPGSA,A,3,,,,,,,,,,,,,0.0,10.0,0.0*03
$GPRMC,070603.000,A,5547.380,N,04906.778,E,0.00,0.00,270716,,*0F
$GPGGA,070603.000,5547.380,N,04906.778,E,1,00,10.0,61.000,M,0.0,M,,*63
$GPGSA,A,3,,,,,,,,,,,,,0.0,10.0,0.0*03
$GPRMC,070604.000,A,5547.379,N,04906.777,E,0.00,0.00,270716,,*01
$GPGGA,070604.000,5547.379,N,04906.777,E,1,00,10.0,61.000,M,0.0,M,,*6D
$GPGSA,A,3,,,,,,,,,,,,,0.0,10.0,0.0*03
$GPRMC,070605.000,A,5547.379,N,04906.777,E,0.00,0.00,270716,,*00
$GPGGA,070605.000,5547.379,N,04906.777,E,1,00,11.0,62.000,M,0.0,M,,*6E
$GPGSA,A,3,,,,,,,,,,,,,0.0,11.0,0.0*02
$GPRMC,070606.000,A,5547.377,N,04906.774,E,0.00,0.00,270716,,*0E
$GPGGA,070606.000,5547.377,N,04906.774,E,1,00,11.0,60.000,M,0.0,M,,*62
$GPGSA,A,3,,,,,,,,,,,,,0.0,11.0,0.0*02
$GPRMC,070607.000,A,5547.377,N,04906.775,E,0.00,0.00,270716,,*0E
$GPGGA,070607.000,5547.377,N,04906.775,E,1,00,11.0,61.000,M,0.0,M,,*63
$GPGSA,A,3,,,,,,,,,,,,,0.0,11.0,0.0*02
$GPRMC,070607.000,A,5547.376,N,04906.774,E,0.00,0.00,270716,,*0E
$GPGGA,070607.000,5547.376,N,04906.774,E,1,00,11.0,61.000,M,0.0,M,,*63
$GPGSA,A,3,,,,,,,,,,,,,0.0,11.0,0.0*02
$GPRMC,070608.000,A,5547.375,N,04906.773,E,0.00,0.00,270716,,*05
$GPGGA,070608.000,5547.375,N,04906.773,E,1,00,11.0,62.000,M,0.0,M,,*6B
$GPGSA,A,3,,,,,,,,,,,,,0.0,11.0,0.0*02
$GPRMC,070610.000,A,5547.375,N,04906.770,E,0.00,0.00,270716,,*0F
$GPGGA,070610.000,5547.375,N,04906.770,E,1,00,10.0,64.000,M,0.0,M,,*66
$GPGSA,A,3,,,,,,,,,,,,,0.0,10.0,0.0*03
$GPRMC,070611.000,A,5547.375,N,04906.769,E,0.00,0.00,270716,,*06
$GPGGA,070611.000,5547.375,N,04906.769,E,1,00,10.0,67.000,M,0.0,M,,*6C
$GPGSA,A,3,,,,,,,,,,,,,0.0,10.0,0.0*03
$GPRMC,070612.000,A,5547.374,N,04906.768,E,0.00,0.00,270716,,*05
$GPGGA,070612.000,5547.374,N,04906.768,E,1,00,6.0,67.000,M,0.0,M,,*58
$GPGSA,A,3,,,,,,,,,,,,,0.0,6.0,0.0*34
$GPRMC,070613.000,A,5547.373,N,04906.766,E,0.00,0.00,270716,,*0D
$GPGGA,070613.000,5547.373,N,04906.766,E,1,00,6.0,67.000,M,0.0,M,,*50
$GPGSA,A,3,,,,,,,,,,,,,0.0,6.0,0.0*34
$GPRMC,070614.000,A,5547.373,N,04906.765,E,0.00,0.00,270716,,*09
$GPGGA,070614.000,5547.373,N,04906.765,E,1,00,6.0,67.000,M,0.0,M,,*54
$GPGSA,A,3,,,,,,,,,,,,,0.0,6.0,0.0*34
$GPRMC,070615.000,A,5547.372,N,04906.764,E,0.00,0.00,270716,,*08
$GPGGA,070615.000,5547.372,N,04906.764,E,1,00,5.0,69.000,M,0.0,M,,*58
$GPGSA,A,3,,,,,,,,,,,,,0.0,5.0,0.0*37
$GPRMC,070616.000,A,5547.372,N,04906.763,E,0.00,0.00,270716,,*0C
$GPGGA,070616.000,5547.372,N,04906.763,E,1,00,6.0,69.000,M,0.0,M,,*5F
$GPGSA,A,3,,,,,,,,,,,,,0.0,6.0,0.0*34
$GPRMC,070617.000,A,5547.372,N,04906.762,E,0.00,0.00,270716,,*0C
$GPGGA,070617.000,5547.372,N,04906.762,E,1,00,6.0,69.000,M,0.0,M,,*5F
$GPGSA,A,3,,,,,,,,,,,,,0.0,6.0,0.0*34
$GPRMC,070618.000,A,5547.372,N,04906.761,E,0.00,0.00,270716,,*00
$GPGGA,070618.000,5547.372,N,04906.761,E,1,00,7.0,70.000,M,0.0,M,,*5A
$GPGSA,A,3,,,,,,,,,,,,,0.0,7.0,0.0*35
$GPRMC,070619.000,A,5547.371,N,04906.760,E,0.00,0.00,270716,,*03
$GPGGA,070619.000,5547.371,N,04906.760,E,1,00,6.0,70.000,M,0.0,M,,*58
$GPGSA,A,3,,,,,,,,,,,,,0.0,6.0,0.0*34
$GPRMC,070620.000,A,5547.371,N,04906.759,E,0.00,0.00,270716,,*03
$GPGGA,070620.000,5547.371,N,04906.759,E,1,00,6.0,73.000,M,0.0,M,,*5B
$GPGSA,A,3,,,,,,,,,,,,,0.0,6.0,0.0*34
$GPRMC,070621.000,A,5547.370,N,04906.757,E,0.00,0.00,270716,,*0D
$GPGGA,070621.000,5547.370,N,04906.757,E,1,00,5.0,73.000,M,0.0,M,,*56
$GPGSA,A,3,,,,,,,,,,,,,0.0,5.0,0.0*37
$GPRMC,070622.000,A,5547.370,N,04906.757,E,0.00,0.00,270716,,*0E
$GPGGA,070622.000,5547.370,N,04906.757,E,1,00,5.0,74.000,M,0.0,M,,*52
$GPGSA,A,3,,,,,,,,,,,,,0.0,5.0,0.0*37
$GPRMC,070623.000,A,5547.370,N,04906.756,E,0.00,0.00,270716,,*0E
$GPGGA,070623.000,5547.370,N,04906.756,E,1,00,5.0,73.000,M,0.0,M,,*55
$GPGSA,A,3,,,,,,,,,,,,,0.0,5.0,0.0*37
$GPRMC,070624.000,A,5547.370,N,04906.755,E,0.00,0.00,270716,,*0A
$GPGGA,070624.000,5547.370,N,04906.755,E,1,00,5.0,74.000,M,0.0,M,,*56
$GPGSA,A,3,,,,,,,,,,,,,0.0,5.0,0.0*37
$GPRMC,070625.000,A,5547.369,N,04906.754,E,0.00,0.00,270716,,*02
$GPGGA,070625.000,5547.369,N,04906.754,E,1,00,5.0,74.000,M,0.0,M,,*5E
$GPGSA,A,3,,,,,,,,,,,,,0.0,5.0,0.0*37
$GPRMC,070626.000,A,5547.369,N,04906.753,E,0.00,0.00,270716,,*06
$GPGGA,070626.000,5547.369,N,04906.753,E,1,00,5.0,74.000,M,0.0,M,,*5A
$GPGSA,A,3,,,,,,,,,,,,,0.0,5.0,0.0*37
$GPRMC,070627.000,A,5547.369,N,04906.752,E,0.00,0.00,270716,,*06
$GPGGA,070627.000,5547.369,N,04906.752,E,1,00,5.0,76.000,M,0.0,M,,*58
$GPGSA,A,3,,,,,,,,,,,,,0.0,5.0,0.0*37
$GPRMC,070628.000,A,5547.368,N,04906.750,E,0.00,0.00,270716,,*0A
$GPGGA,070628.000,5547.368,N,04906.750,E,1,00,5.0,76.000,M,0.0,M,,*54
$GPGSA,A,3,,,,,,,,,,,,,0.0,5.0,0.0*37
$GPRMC,070629.000,A,5547.367,N,04906.749,E,0.00,0.00,270716,,*0C
$GPGGA,070629.000,5547.367,N,04906.749,E,1,00,5.0,76.000,M,0.0,M,,*52
$GPGSA,A,3,,,,,,,,,,,,,0.0,5.0,0.0*37
$GPRMC,070630.000,A,5547.367,N,04906.748,E,0.00,0.00,270716,,*05
$GPGGA,070630.000,5547.367,N,04906.748,E,1,00,5.0,78.000,M,0.0,M,,*55
$GPGSA,A,3,,,,,,,,,,,,,0.0,5.0,0.0*37
$GPRMC,070631.000,A,5547.366,N,04906.747,E,0.00,0.00,270716,,*0A
$GPGGA,070631.000,5547.366,N,04906.747,E,1,00,5.0,78.000,M,0.0,M,,*5A
$GPGSA,A,3,,,,,,,,,,,,,0.0,5.0,0.0*37
$GPRMC,070632.000,A,5547.366,N,04906.747,E,0.00,0.00,270716,,*09
$GPGGA,070632.000,5547.366,N,04906.747,E,1,00,5.0,79.000,M,0.0,M,,*58
$GPGSA,A,3,,,,,,,,,,,,,0.0,5.0,0.0*37
$GPRMC,070633.000,A,5547.365,N,04906.746,E,0.00,0.00,270716,,*0A
$GPGGA,070633.000,5547.365,N,04906.746,E,1,00,6.0,80.000,M,0.0,M,,*5E
$GPGSA,A,3,,,,,,,,,,,,,0.0,6.0,0.0*34
$GPRMC,070634.000,A,5547.365,N,04906.744,E,0.00,0.00,270716,,*0F
$GPGGA,070634.000,5547.365,N,04906.744,E,1,00,6.0,82.000,M,0.0,M,,*59
$GPGSA,A,3,,,,,,,,,,,,,0.0,6.0,0.0*34
$GPRMC,070635.000,A,5547.366,N,04906.744,E,0.00,0.00,270716,,*0D
$GPGGA,070635.000,5547.366,N,04906.744,E,1,00,6.0,81.000,M,0.0,M,,*58
$GPGSA,A,3,,,,,,,,,,,,,0.0,6.0,0.0*34
$GPRMC,070636.000,A,5547.366,N,04906.745,E,0.00,0.00,270716,,*0F
$GPGGA,070636.000,5547.366,N,04906.745,E,1,00,7.0,80.000,M,0.0,M,,*5A
$GPGSA,A,3,,,,,,,,,,,,,0.0,7.0,0.0*35
$GPRMC,070637.000,A,5547.365,N,04906.743,E,0.00,0.00,270716,,*0B
$GPGGA,070637.000,5547.365,N,04906.743,E,1,00,7.0,80.000,M,0.0,M,,*5E
$GPGSA,A,3,,,,,,,,,,,,,0.0,7.0,0.0*35
$GPRMC,070638.000,A,5547.365,N,04906.743,E,0.00,0.00,270716,,*04
$GPGGA,070638.000,5547.365,N,04906.743,E,1,00,7.0,80.000,M,0.0,M,,*51
$GPGSA,A,3,,,,,,,,,,,,,0.0,7.0,0.0*35
$GPRMC,070639.000,A,5547.366,N,04906.744,E,0.00,0.00,270716,,*01
$GPGGA,070639.000,5547.366,N,04906.744,E,1,00,7.0,81.000,M,0.0,M,,*55
$GPGSA,A,3,,,,,,,,,,,,,0.0,7.0,0.0*35
$GPRMC,070640.000,A,5547.366,N,04906.743,E,0.00,0.00,270716,,*08
$GPGGA,070640.000,5547.366,N,04906.743,E,1,00,8.0,81.000,M,0.0,M,,*53
$GPGSA,A,3,,,,,,,,,,,,,0.0,8.0,0.0*3A
$GPRMC,070640.000,A,5547.365,N,04906.742,E,0.00,0.00,270716,,*0A
$GPGGA,070640.000,5547.365,N,04906.742,E,1,00,8.0,81.000,M,0.0,M,,*51
$GPGSA,A,3,,,,,,,,,,,,,0.0,8.0,0.0*3A
$GPRMC,070643.000,A,5547.365,N,04906.741,E,0.00,0.00,270716,,*0A
$GPGGA,070643.000,5547.365,N,04906.741,E,1,00,9.0,81.000,M,0.0,M,,*50
$GPGSA,A,3,,,,,,,,,,,,,0.0,9.0,0.0*3B
$GPRMC,070644.000,A,5547.365,N,04906.739,E,0.00,0.00,270716,,*02
$GPGGA,070644.000,5547.365,N,04906.739,E,1,00,13.0,81.000,M,0.0,M,,*63
$GPGSA,A,3,,,,,,,,,,,,,0.0,13.0,0.0*00
$GPRMC,070645.000,A,5547.364,N,04906.737,E,0.00,0.00,270716,,*0C
$GPGGA,070645.000,5547.364,N,04906.737,E,1,00,15.0,82.000,M,0.0,M,,*68
$GPGSA,A,3,,,,,,,,,,,,,0.0,15.0,0.0*06
$GPRMC,070646.000,A,5547.359,N,04906.730,E,0.00,0.00,270716,,*06
$GPGGA,070646.000,5547.359,N,04906.730,E,1,00,15.0,79.000,M,0.0,M,,*66
$GPGSA,A,3,,,,,,,,,,,,,0.0,15.0,0.0*06
$GPRMC,070647.000,A,5547.356,N,04906.729,E,0.00,0.00,270716,,*00
$GPGGA,070647.000,5547.356,N,04906.729,E,1,00,11.0,79.000,M,0.0,M,,*64
$GPGSA,A,3,,,,,,,,,,,,,0.0,11.0,0.0*02
$GPRMC,070648.000,A,5547.355,N,04906.727,E,0.00,0.00,270716,,*02
$GPGGA,070648.000,5547.355,N,04906.727,E,1,00,11.0,79.000,M,0.0,M,,*66
$GPGSA,A,3,,,,,,,,,,,,,0.0,11.0,0.0*02
$GPRMC,070649.000,A,5547.355,N,04906.729,E,0.00,0.00,270716,,*0D
$GPGGA,070649.000,5547.355,N,04906.729,E,1,00,10.0,80.000,M,0.0,M,,*6E
$GPGSA,A,3,,,,,,,,,,,,,0.0,10.0,0.0*03
$GPRMC,070650.000,A,5547.353,N,04906.726,E,0.00,0.00,270716,,*0C
$GPGGA,070650.000,5547.353,N,04906.726,E,1,00,10.0,79.000,M,0.0,M,,*69
$GPGSA,A,3,,,,,,,,,,,,,0.0,10.0,0.0*03
$GPRMC,070651.000,A,5547.352,N,04906.729,E,0.00,0.00,270716,,*03
$GPGGA,070651.000,5547.352,N,04906.729,E,1,00,9.0,79.000,M,0.0,M,,*5E
$GPGSA,A,3,,,,,,,,,,,,,0.0,9.0,0.0*3B
$GPRMC,070652.000,A,5547.349,N,04906.728,E,0.00,0.00,270716,,*0B
$GPGGA,070652.000,5547.349,N,04906.728,E,1,00,9.0,79.000,M,0.0,M,,*56
$GPGSA,A,3,,,,,,,,,,,,,0.0,9.0,0.0*3B
$GPRMC,070653.000,A,5547.348,N,04906.726,E,0.00,0.00,270716,,*05
$GPGGA,070653.000,5547.348,N,04906.726,E,1,00,9.0,78.000,M,0.0,M,,*59
$GPGSA,A,3,,,,,,,,,,,,,0.0,9.0,0.0*3B
$GPRMC,070654.000,A,5547.347,N,04906.723,E,0.00,0.00,270716,,*08
$GPGGA,070654.000,5547.347,N,04906.723,E,1,00,8.0,76.000,M,0.0,M,,*5B
$GPGSA,A,3,,,,,,,,,,,,,0.0,8.0,0.0*3A
$GPRMC,070655.000,A,5547.347,N,04906.725,E,0.00,0.00,270716,,*0F
$GPGGA,070655.000,5547.347,N,04906.725,E,1,00,7.0,75.000,M,0.0,M,,*50
$GPGSA,A,3,,,,,,,,,,,,,0.0,7.0,0.0*35
$GPRMC,070656.000,A,5547.348,N,04906.728,E,0.00,0.00,270716,,*0E
$GPGGA,070656.000,5547.348,N,04906.728,E,1,00,7.0,73.000,M,0.0,M,,*57
$GPGSA,A,3,,,,,,,,,,,,,0.0,7.0,0.0*35
$GPRMC,070657.000,A,5547.347,N,04906.729,E,0.00,0.00,270716,,*01
$GPGGA,070657.000,5547.347,N,04906.729,E,1,00,7.0,70.000,M,0.0,M,,*5B
$GPGSA,A,3,,,,,,,,,,,,,0.0,7.0,0.0*35
$GPRMC,070658.000,A,5547.347,N,04906.731,E,0.00,0.00,270716,,*07
$GPGGA,070658.000,5547.347,N,04906.731,E,1,00,7.0,68.000,M,0.0,M,,*54
$GPGSA,A,3,,,,,,,,,,,,,0.0,7.0,0.0*35
$GPRMC,070659.000,A,5547.346,N,04906.732,E,0.00,0.00,270716,,*04
$GPGGA,070659.000,5547.346,N,04906.732,E,1,00,8.0,68.000,M,0.0,M,,*58
$GPGSA,A,3,,,,,,,,,,,,,0.0,8.0,0.0*3A
$GPRMC,070700.000,A,5547.345,N,04906.731,E,0.00,0.00,270716,,*09
$GPGGA,070700.000,5547.345,N,04906.731,E,1,00,8.0,68.000,M,0.0,M,,*55
$GPGSA,A,3,,,,,,,,,,,,,0.0,8.0,0.0*3A
$GPRMC,070700.000,A,5547.345,N,04906.732,E,0.00,0.00,270716,,*0A
$GPGGA,070700.000,5547.345,N,04906.732,E,1,00,8.0,67.000,M,0.0,M,,*59
$GPGSA,A,3,,,,,,,,,,,,,0.0,8.0,0.0*3A
$GPRMC,070702.000,A,5547.345,N,04906.733,E,0.00,0.00,270716,,*09
$GPGGA,070702.000,5547.345,N,04906.733,E,1,00,8.0,66.000,M,0.0,M,,*5B
$GPGSA,A,3,,,,,,,,,,,,,0.0,8.0,0.0*3A
$GPRMC,070703.000,A,5547.344,N,04906.734,E,0.00,0.00,270716,,*0E
$GPGGA,070703.000,5547.344,N,04906.734,E,1,00,8.0,66.000,M,0.0,M,,*5C
$GPGSA,A,3,,,,,,,,,,,,,0.0,8.0,0.0*3A
$GPRMC,070704.000,A,5547.344,N,04906.735,E,0.00,0.00,270716,,*08
$GPGGA,070704.000,5547.344,N,04906.735,E,1,00,8.0,65.000,M,0.0,M,,*59
$GPGSA,A,3,,,,,,,,,,,,,0.0,8.0,0.0*3A
$GPRMC,070705.000,A,5547.344,N,04906.735,E,0.00,0.00,270716,,*09
$GPGGA,070705.000,5547.344,N,04906.735,E,1,00,8.0,64.000,M,0.0,M,,*59
$GPGSA,A,3,,,,,,,,,,,,,0.0,8.0,0.0*3A
$GPRMC,070706.000,A,5547.343,N,04906.734,E,0.00,0.00,270716,,*0C
$GPGGA,070706.000,5547.343,N,04906.734,E,1,00,7.0,64.000,M,0.0,M,,*53
$GPGSA,A,3,,,,,,,,,,,,,0.0,7.0,0.0*35
$GPRMC,070706.000,A,5547.342,N,04906.734,E,0.00,0.00,270716,,*0D
$GPGGA,070706.000,5547.342,N,04906.734,E,1,00,8.0,63.000,M,0.0,M,,*5A
$GPGSA,A,3,,,,,,,,,,,,,0.0,8.0,0.0*3A
$GPRMC,070708.000,A,5547.342,N,04906.733,E,0.00,0.00,270716,,*04
$GPGGA,070708.000,5547.342,N,04906.733,E,1,00,8.0,62.000,M,0.0,M,,*52
$GPGSA,A,3,,,,,,,,,,,,,0.0,8.0,0.0*3A
$GPRMC,070709.000,A,5547.343,N,04906.734,E,0.00,0.00,270716,,*03
$GPGGA,070709.000,5547.343,N,04906.734,E,1,00,7.0,62.000,M,0.0,M,,*5A
$GPGSA,A,3,,,,,,,,,,,,,0.0,7.0,0.0*35
$GPRMC,070710.000,A,5547.343,N,04906.735,E,0.00,0.00,270716,,*0A
$GPGGA,070710.000,5547.343,N,04906.735,E,1,00,7.0,62.000,M,0.0,M,,*53
$GPGSA,A,3,,,,,,,,,,,,,0.0,7.0,0.0*35
$GPRMC,070711.000,A,5547.343,N,04906.734,E,0.00,0.00,270716,,*0A
$GPGGA,070711.000,5547.343,N,04906.734,E,1,00,7.0,62.000,M,0.0,M,,*53
$GPGSA,A,3,,,,,,,,,,,,,0.0,7.0,0.0*35
$GPRMC,070712.000,A,5547.343,N,04906.734,E,0.00,0.00,270716,,*09
$GPGGA,070712.000,5547.343,N,04906.734,E,1,00,7.0,62.000,M,0.0,M,,*50
$GPGSA,A,3,,,,,,,,,,,,,0.0,7.0,0.0*35
$GPRMC,070713.000,A,5547.343,N,04906.734,E,0.00,0.00,270716,,*08
$GPGGA,070713.000,5547.343,N,04906.734,E,1,00,6.0,61.000,M,0.0,M,,*53
$GPGSA,A,3,,,,,,,,,,,,,0.0,6.0,0.0*34
$GPRMC,070714.000,A,5547.343,N,04906.734,E,0.00,0.00,270716,,*0F
$GPGGA,070714.000,5547.343,N,04906.734,E,1,00,6.0,62.000,M,0.0,M,,*57
$GPGSA,A,3,,,,,,,,,,,,,0.0,6.0,0.0*34
$GPRMC,070715.000,A,5547.343,N,04906.734,E,0.00,0.00,270716,,*0E
$GPGGA,070715.000,5547.343,N,04906.734,E,1,00,10.0,62.000,M,0.0,M,,*61
$GPGSA,A,3,,,,,,,,,,,,,0.0,10.0,0.0*03
$GPRMC,070716.000,A,5547.343,N,04906.734,E,0.00,0.00,270716,,*0D
$GPGGA,070716.000,5547.343,N,04906.734,E,1,00,10.0,62.000,M,0.0,M,,*62
$GPGSA,A,3,,,,,,,,,,,,,0.0,10.0,0.0*03
$GPRMC,070717.000,A,5547.343,N,04906.734,E,0.00,0.00,270716,,*0C
$GPGGA,070717.000,5547.343,N,04906.734,E,1,00,10.0,62.000,M,0.0,M,,*63
$GPGSA,A,3,,,,,,,,,,,,,0.0,10.0,0.0*03
$GPRMC,070718.000,A,5547.343,N,04906.734,E,0.00,0.00,270716,,*03
$GPGGA,070718.000,5547.343,N,04906.734,E,1,00,10.0,62.000,M,0.0,M,,*6C
$GPGSA,A,3,,,,,,,,,,,,,0.0,10.0,0.0*03
$GPRMC,070719.000,A,5547.342,N,04906.734,E,0.00,0.00,270716,,*03
$GPGGA,070719.000,5547.342,N,04906.734,E,1,00,10.0,62.000,M,0.0,M,,*6C
$GPGSA,A,3,,,,,,,,,,,,,0.0,10.0,0.0*03
$GPRMC,070720.000,A,5547.342,N,04906.732,E,0.00,0.00,270716,,*0F
$GPGGA,070720.000,5547.342,N,04906.732,E,1,00,10.0,62.000,M,0.0,M,,*60
$GPGSA,A,3,,,,,,,,,,,,,0.0,10.0,0.0*03
$GPRMC,070721.000,A,5547.341,N,04906.732,E,0.00,0.00,270716,,*0D
$GPGGA,070721.000,5547.341,N,04906.732,E,1,00,10.0,61.000,M,0.0,M,,*61
$GPGSA,A,3,,,,,,,,,,,,,0.0,10.0,0.0*03
$GPRMC,070722.000,A,5547.341,N,04906.731,E,0.00,0.00,270716,,*0D
$GPGGA,070722.000,5547.341,N,04906.731,E,1,00,10.0,61.000,M,0.0,M,,*61
$GPGSA,A,3,,,,,,,,,,,,,0.0,10.0,0.0*03
$GPRMC,070723.000,A,5547.340,N,04906.729,E,0.00,0.00,270716,,*04
$GPGGA,070723.000,5547.340,N,04906.729,E,1,00,10.0,61.000,M,0.0,M,,*68
$GPGSA,A,3,,,,,,,,,,,,,0.0,10.0,0.0*03
$GPRMC,070724.000,A,5547.339,N,04906.728,E,0.00,0.00,270716,,*0C
$GPGGA,070724.000,5547.339,N,04906.728,E,1,00,10.0,61.000,M,0.0,M,,*60
$GPGSA,A,3,,,,,,,,,,,,,0.0,10.0,0.0*03
$GPRMC,070725.000,A,5547.338,N,04906.727,E,0.00,0.00,270716,,*03
$GPGGA,070725.000,5547.338,N,04906.727,E,1,00,10.0,61.000,M,0.0,M,,*6F
$GPGSA,A,3,,,,,,,,,,,,,0.0,10.0,0.0*03
$GPRMC,070726.000,A,5547.338,N,04906.726,E,0.00,0.00,270716,,*01
$GPGGA,070726.000,5547.338,N,04906.726,E,1,00,10.0,61.000,M,0.0,M,,*6D
$GPGSA,A,3,,,,,,,,,,,,,0.0,10.0,0.0*03
$GPRMC,070727.000,A,5547.337,N,04906.726,E,0.00,0.00,270716,,*0F
$GPGGA,070727.000,5547.337,N,04906.726,E,1,00,10.0,61.000,M,0.0,M,,*63
$GPGSA,A,3,,,,,,,,,,,,,0.0,10.0,0.0*03
$GPRMC,070728.000,A,5547.337,N,04906.725,E,0.00,0.00,270716,,*03
$GPGGA,070728.000,5547.337,N,04906.725,E,1,00,10.0,60.000,M,0.0,M,,*6E
$GPGSA,A,3,,,,,,,,,,,,,0.0,10.0,0.0*03
$GPRMC,070729.000,A,5547.337,N,04906.725,E,0.00,0.00,270716,,*02
$GPGGA,070729.000,5547.337,N,04906.725,E,1,00,10.0,60.000,M,0.0,M,,*6F
$GPGSA,A,3,,,,,,,,,,,,,0.0,10.0,0.0*03
$GPRMC,070730.000,A,5547.337,N,04906.724,E,0.00,0.00,270716,,*0B
$GPGGA,070730.000,5547.337,N,04906.724,E,1,00,10.0,60.000,M,0.0,M,,*66
$GPGSA,A,3,,,,,,,,,,,,,0.0,10.0,0.0*03
$GPRMC,070731.000,A,5547.336,N,04906.723,E,0.00,0.00,270716,,*0C
$GPGGA,070731.000,5547.336,N,04906.723,E,1,00,10.0,59.000,M,0.0,M,,*6B
$GPGSA,A,3,,,,,,,,,,,,,0.0,10.0,0.0*03
$GPRMC,070732.000,A,5547.335,N,04906.721,E,0.00,0.00,270716,,*0E
$GPGGA,070732.000,5547.335,N,04906.721,E,1,00,10.0,59.000,M,0.0,M,,*69
$GPGSA,A,3,,,,,,,,,,,,,0.0,10.0,0.0*03
$GPRMC,070733.000,A,5547.335,N,04906.721,E,0.00,0.00,270716,,*0F
$GPGGA,070733.000,5547.335,N,04906.721,E,1,00,10.0,58.000,M,0.0,M,,*69
$GPGSA,A,3,,,,,,,,,,,,,0.0,10.0,0.0*03
$GPRMC,070734.000,A,5547.334,N,04906.720,E,0.00,0.00,270716,,*08
$GPGGA,070734.000,5547.334,N,04906.720,E,1,00,10.0,59.000,M,0.0,M,,*6F
$GPGSA,A,3,,,,,,,,,,,,,0.0,10.0,0.0*03
$GPRMC,070735.000,A,5547.333,N,04906.720,E,0.00,0.00,270716,,*0E
$GPGGA,070735.000,5547.333,N,04906.720,E,1,00,10.0,60.000,M,0.0,M,,*63
$GPGSA,A,3,,,,,,,,,,,,,0.0,10.0,0.0*03
$GPRMC,070736.000,A,5547.333,N,04906.719,E,0.00,0.00,270716,,*07
$GPGGA,070736.000,5547.333,N,04906.719,E,1,00,10.0,59.000,M,0.0,M,,*60
$GPGSA,A,3,,,,,,,,,,,,,0.0,10.0,0.0*03
$GPRMC,070737.000,A,5547.333,N,04906.719,E,0.00,0.00,270716,,*06
$GPGGA,070737.000,5547.333,N,04906.719,E,1,00,10.0,58.000,M,0.0,M,,*60
$GPGSA,A,3,,,,,,,,,,,,,0.0,10.0,0.0*03
$GPRMC,070738.000,A,5547.333,N,04906.719,E,0.00,0.00,270716,,*09
$GPGGA,070738.000,5547.333,N,04906.719,E,1,00,10.0,59.000,M,0.0,M,,*6E
$GPGSA,A,3,,,,,,,,,,,,,0.0,10.0,0.0*03
$GPRMC,070739.000,A,5547.333,N,04906.718,E,0.00,0.00,270716,,*09
$GPGGA,070739.000,5547.333,N,04906.718,E,1,00,10.0,59.000,M,0.0,M,,*6E
$GPGSA,A,3,,,,,,,,,,,,,0.0,10.0,0.0*03
$GPRMC,070740.000,A,5547.333,N,04906.717,E,0.00,0.00,270716,,*08
$GPGGA,070740.000,5547.333,N,04906.717,E,1,00,10.0,59.000,M,0.0,M,,*6F
$GPGSA,A,3,,,,,,,,,,,,,0.0,10.0,0.0*03
$GPRMC,070741.000,A,5547.332,N,04906.717,E,0.00,0.00,270716,,*08
$GPGGA,070741.000,5547.332,N,04906.717,E,1,00,10.0,59.000,M,0.0,M,,*6F
$GPGSA,A,3,,,,,,,,,,,,,0.0,10.0,0.0*03
$GPRMC,070742.000,A,5547.332,N,04906.717,E,0.00,0.00,270716,,*0B
$GPGGA,070742.000,5547.332,N,04906.717,E,1,00,10.0,60.000,M,0.0,M,,*66
$GPGSA,A,3,,,,,,,,,,,,,0.0,10.0,0.0*03
$GPRMC,070743.000,A,5547.332,N,04906.716,E,0.00,0.00,270716,,*0B
$GPGGA,070743.000,5547.332,N,04906.716,E,1,00,10.0,60.000,M,0.0,M,,*66
$GPGSA,A,3,,,,,,,,,,,,,0.0,10.0,0.0*03
$GPRMC,070744.000,A,5547.332,N,04906.716,E,0.00,0.00,270716,,*0C
$GPGGA,070744.000,5547.332,N,04906.716,E,1,00,10.0,60.000,M,0.0,M,,*61
$GPGSA,A,3,,,,,,,,,,,,,0.0,10.0,0.0*03
$GPRMC,070745.000,A,5547.331,N,04906.715,E,0.00,0.00,270716,,*0D
$GPGGA,070745.000,5547.331,N,04906.715,E,1,00,10.0,60.000,M,0.0,M,,*60
$GPGSA,A,3,,,,,,,,,,,,,0.0,10.0,0.0*03
$GPRMC,070746.000,A,5547.331,N,04906.714,E,0.00,0.00,270716,,*0F
$GPGGA,070746.000,5547.331,N,04906.714,E,1,00,10.0,60.000,M,0.0,M,,*62
$GPGSA,A,3,,,,,,,,,,,,,0.0,10.0,0.0*03
$GPRMC,070747.000,A,5547.330,N,04906.713,E,0.00,0.00,270716,,*08
$GPGGA,070747.000,5547.330,N,04906.713,E,1,00,10.0,60.000,M,0.0,M,,*65
$GPGSA,A,3,,,,,,,,,,,,,0.0,10.0,0.0*03
$GPRMC,070748.000,A,5547.330,N,04906.712,E,0.00,0.00,270716,,*06
$GPGGA,070748.000,5547.330,N,04906.712,E,1,00,10.0,59.000,M,0.0,M,,*61
$GPGSA,A,3,,,,,,,,,,,,,0.0,10.0,0.0*03
$GPRMC,070749.000,A,5547.330,N,04906.711,E,0.00,0.00,270716,,*04
$GPGGA,070749.000,5547.330,N,04906.711,E,1,00,10.0,59.000,M,0.0,M,,*63
$GPGSA,A,3,,,,,,,,,,,,,0.0,10.0,0.0*03
$GPRMC,070750.000,A,5547.330,N,04906.712,E,0.00,0.00,270716,,*0F
$GPGGA,070750.000,5547.330,N,04906.712,E,1,00,9.0,59.000,M,0.0,M,,*50
$GPGSA,A,3,,,,,,,,,,,,,0.0,9.0,0.0*3B
$GPRMC,070751.000,A,5547.330,N,04906.712,E,0.00,0.00,270716,,*0E
$GPGGA,070751.000,5547.330,N,04906.712,E,1,00,10.0,59.000,M,0.0,M,,*69
$GPGSA,A,3,,,,,,,,,,,,,0.0,10.0,0.0*03
$GPRMC,070752.000,A,5547.330,N,04906.712,E,0.00,0.00,270716,,*0D
$GPGGA,070752.000,5547.330,N,04906.712,E,1,00,10.0,59.000,M,0.0,M,,*6A
$GPGSA,A,3,,,,,,,,,,,,,0.0,10.0,0.0*03
$GPRMC,070753.000,A,5547.330,N,04906.712,E,0.00,0.00,270716,,*0C
$GPGGA,070753.000,5547.330,N,04906.712,E,1,00,10.0,59.000,M,0.0,M,,*6B
$GPGSA,A,3,,,,,,,,,,,,,0.0,10.0,0.0*03
$GPRMC,070754.000,A,5547.330,N,04906.712,E,0.00,0.00,270716,,*0B
$GPGGA,070754.000,5547.330,N,04906.712,E,1,00,4.0,59.000,M,0.0,M,,*59
$GPGSA,A,3,,,,,,,,,,,,,0.0,4.0,0.0*36
$GPRMC,070755.000,A,5547.329,N,04906.711,E,0.00,0.00,270716,,*01
$GPGGA,070755.000,5547.329,N,04906.711,E,1,00,3.0,58.000,M,0.0,M,,*55
$GPGSA,A,3,,,,,,,,,,,,,0.0,3.0,0.0*31
$GPRMC,070756.000,A,5547.329,N,04906.711,E,0.00,0.00,270716,,*02
$GPGGA,070756.000,5547.329,N,04906.711,E,1,00,3.0,57.000,M,0.0,M,,*59
$GPGSA,A,3,,,,,,,,,,,,,0.0,3.0,0.0*31
$GPRMC,070757.000,A,5547.328,N,04906.710,E,0.00,0.00,270716,,*03
$GPGGA,070757.000,5547.328,N,04906.710,E,1,00,3.0,57.000,M,0.0,M,,*58
$GPGSA,A,3,,,,,,,,,,,,,0.0,3.0,0.0*31
$GPRMC,070758.000,A,5547.327,N,04906.710,E,0.00,0.00,270716,,*03
$GPGGA,070758.000,5547.327,N,04906.710,E,1,00,3.0,58.000,M,0.0,M,,*57
$GPGSA,A,3,,,,,,,,,,,,,0.0,3.0,0.0*31
$GPRMC,070759.000,A,5547.328,N,04906.710,E,0.00,0.00,270716,,*0D
$GPGGA,070759.000,5547.328,N,04906.710,E,1,00,3.0,58.000,M,0.0,M,,*59
$GPGSA,A,3,,,,,,,,,,,,,0.0,3.0,0.0*31
$GPRMC,070759.000,A,5547.328,N,04906.711,E,0.00,0.00,270716,,*0C
$GPGGA,070759.000,5547.328,N,04906.711,E,1,00,3.0,58.000,M,0.0,M,,*58
$GPGSA,A,3,,,,,,,,,,,,,0.0,3.0,0.0*31
$GPRMC,070801.000,A,5547.328,N,04906.711,E,0.00,0.00,270716,,*0E
$GPGGA,070801.000,5547.328,N,04906.711,E,1,00,3.0,57.000,M,0.0,M,,*55
$GPGSA,A,3,,,,,,,,,,,,,0.0,3.0,0.0*31
$GPRMC,070802.000,A,5547.329,N,04906.712,E,0.00,0.00,270716,,*0F
$GPGGA,070802.000,5547.329,N,04906.712,E,1,00,3.0,58.000,M,0.0,M,,*5B
$GPGSA,A,3,,,,,,,,,,,,,0.0,3.0,0.0*31
$GPRMC,070803.000,A,5547.329,N,04906.712,E,0.00,0.00,270716,,*0E
$GPGGA,070803.000,5547.329,N,04906.712,E,1,00,3.0,58.000,M,0.0,M,,*5A
$GPGSA,A,3,,,,,,,,,,,,,0.0,3.0,0.0*31
$GPRMC,070804.000,A,5547.329,N,04906.713,E,0.00,0.00,270716,,*08
$GPGGA,070804.000,5547.329,N,04906.713,E,1,00,3.0,58.000,M,0.0,M,,*5C
$GPGSA,A,3,,,,,,,,,,,,,0.0,3.0,0.0*31
$GPRMC,070805.000,A,5547.329,N,04906.713,E,0.00,0.00,270716,,*09
$GPGGA,070805.000,5547.329,N,04906.713,E,1,00,3.0,58.000,M,0.0,M,,*5D
$GPGSA,A,3,,,,,,,,,,,,,0.0,3.0,0.0*31
$GPRMC,070806.000,A,5547.329,N,04906.713,E,0.00,0.00,270716,,*0A
$GPGGA,070806.000,5547.329,N,04906.713,E,1,00,3.0,58.000,M,0.0,M,,*5E
$GPGSA,A,3,,,,,,,,,,,,,0.0,3.0,0.0*31
$GPRMC,070807.000,A,5547.328,N,04906.713,E,0.00,0.00,270716,,*0A
$GPGGA,070807.000,5547.328,N,04906.713,E,1,00,3.0,57.000,M,0.0,M,,*51
$GPGSA,A,3,,,,,,,,,,,,,0.0,3.0,0.0*31
$GPRMC,070807.000,A,5547.328,N,04906.712,E,0.00,0.00,270716,,*0B
$GPGGA,070807.000,5547.328,N,04906.712,E,1,00,3.0,57.000,M,0.0,M,,*50
$GPGSA,A,3,,,,,,,,,,,,,0.0,3.0,0.0*31
$GPRMC,070808.000,A,5547.328,N,04906.711,E,0.00,0.00,270716,,*07
$GPGGA,070808.000,5547.328,N,04906.711,E,1,00,3.0,58.000,M,0.0,M,,*53
$GPGSA,A,3,,,,,,,,,,,,,0.0,3.0,0.0*31
$GPRMC,070810.000,A,5547.327,N,04906.711,E,0.00,0.00,270716,,*01
$GPGGA,070810.000,5547.327,N,04906.711,E,1,00,3.0,58.000,M,0.0,M,,*55
$GPGSA,A,3,,,,,,,,,,,,,0.0,3.0,0.0*31
$GPRMC,070811.000,A,5547.327,N,04906.711,E,0.00,0.00,270716,,*00
$GPGGA,070811.000,5547.327,N,04906.711,E,1,00,3.0,58.000,M,0.0,M,,*54
$GPGSA,A,3,,,,,,,,,,,,,0.0,3.0,0.0*31
$GPRMC,070812.000,A,5547.326,N,04906.710,E,0.00,0.00,270716,,*03
$GPGGA,070812.000,5547.326,N,04906.710,E,1,00,3.0,58.000,M,0.0,M,,*57
$GPGSA,A,3,,,,,,,,,,,,,0.0,3.0,0.0*31
$GPRMC,070813.000,A,5547.326,N,04906.709,E,0.00,0.00,270716,,*0A
$GPGGA,070813.000,5547.326,N,04906.709,E,1,00,3.0,58.000,M,0.0,M,,*5E
$GPGSA,A,3,,,,,,,,,,,,,0.0,3.0,0.0*31
$GPRMC,070814.000,A,5547.325,N,04906.708,E,0.00,0.00,270716,,*0F
$GPGGA,070814.000,5547.325,N,04906.708,E,1,00,3.0,58.000,M,0.0,M,,*5B
$GPGSA,A,3,,,,,,,,,,,,,0.0,3.0,0.0*31
$GPRMC,070815.000,A,5547.325,N,04906.708,E,0.00,0.00,270716,,*0E
$GPGGA,070815.000,5547.325,N,04906.708,E,1,00,3.0,58.000,M,0.0,M,,*5A
$GPGSA,A,3,,,,,,,,,,,,,0.0,3.0,0.0*31
$GPRMC,070816.000,A,5547.324,N,04906.707,E,0.00,0.00,270716,,*03
$GPGGA,070816.000,5547.324,N,04906.707,E,1,00,3.0,57.000,M,0.0,M,,*58
$GPGSA,A,3,,,,,,,,,,,,,0.0,3.0,0.0*31
$GPRMC,070817.000,A,5547.324,N,04906.705,E,0.00,0.00,270716,,*00
$GPGGA,070817.000,5547.324,N,04906.705,E,1,00,4.0,57.000,M,0.0,M,,*5C
$GPGSA,A,3,,,,,,,,,,,,,0.0,4.0,0.0*36
$GPRMC,070818.000,A,5547.323,N,04906.705,E,0.00,0.00,270716,,*08
$GPGGA,070818.000,5547.323,N,04906.705,E,1,00,4.0,57.000,M,0.0,M,,*54
$GPGSA,A,3,,,,,,,,,,,,,0.0,4.0,0.0*36
$GPRMC,070819.000,A,5547.323,N,04906.706,E,0.00,0.00,270716,,*0A
$GPGGA,070819.000,5547.323,N,04906.706,E,1,00,4.0,58.000,M,0.0,M,,*59
$GPGSA,A,3,,,,,,,,,,,,,0.0,4.0,0.0*36
$GPRMC,070820.000,A,5547.323,N,04906.705,E,0.00,0.00,270716,,*03
$GPGGA,070820.000,5547.323,N,04906.705,E,1,00,4.0,58.000,M,0.0,M,,*50
$GPGSA,A,3,,,,,,,,,,,,,0.0,4.0,0.0*36
$GPRMC,070821.000,A,5547.323,N,04906.705,E,0.00,0.00,270716,,*02
$GPGGA,070821.000,5547.323,N,04906.705,E,1,00,4.0,58.000,M,0.0,M,,*51
$GPGSA,A,3,,,,,,,,,,,,,0.0,4.0,0.0*36
$GPRMC,070822.000,A,5547.323,N,04906.705,E,0.00,0.00,270716,,*01
$GPGGA,070822.000,5547.323,N,04906.705,E,1,00,4.0,59.000,M,0.0,M,,*53
$GPGSA,A,3,,,,,,,,,,,,,0.0,4.0,0.0*36
$GPRMC,070823.000,A,5547.323,N,04906.705,E,0.00,0.00,270716,,*00
$GPGGA,070823.000,5547.323,N,04906.705,E,1,00,4.0,59.000,M,0.0,M,,*52
$GPGSA,A,3,,,,,,,,,,,,,0.0,4.0,0.0*36
$GPRMC,070824.000,A,5547.323,N,04906.706,E,0.00,0.00,270716,,*04
$GPGGA,070824.000,5547.323,N,04906.706,E,1,00,4.0,59.000,M,0.0,M,,*56
$GPGSA,A,3,,,,,,,,,,,,,0.0,4.0,0.0*36
$GPRMC,070825.000,A,5547.323,N,04906.706,E,0.00,0.00,270716,,*05
$GPGGA,070825.000,5547.323,N,04906.706,E,1,00,4.0,58.000,M,0.0,M,,*56
$GPGSA,A,3,,,,,,,,,,,,,0.0,4.0,0.0*36
$GPRMC,070826.000,A,5547.323,N,04906.706,E,0.00,0.00,270716,,*06
$GPGGA,070826.000,5547.323,N,04906.706,E,1,00,4.0,58.000,M,0.0,M,,*55
$GPGSA,A,3,,,,,,,,,,,,,0.0,4.0,0.0*36
$GPRMC,070827.000,A,5547.323,N,04906.705,E,0.00,0.00,270716,,*04
$GPGGA,070827.000,5547.323,N,04906.705,E,1,00,4.0,58.000,M,0.0,M,,*57
$GPGSA,A,3,,,,,,,,,,,,,0.0,4.0,0.0*36
$GPRMC,070828.000,A,5547.323,N,04906.705,E,0.00,0.00,270716,,*0B
$GPGGA,070828.000,5547.323,N,04906.705,E,1,00,4.0,58.000,M,0.0,M,,*58
$GPGSA,A,3,,,,,,,,,,,,,0.0,4.0,0.0*36
$GPRMC,070829.000,A,5547.322,N,04906.705,E,0.00,0.00,270716,,*0B
$GPGGA,070829.000,5547.322,N,04906.705,E,1,00,4.0,57.000,M,0.0,M,,*57
$GPGSA,A,3,,,,,,,,,,,,,0.0,4.0,0.0*36
$GPRMC,070830.000,A,5547.322,N,04906.704,E,0.00,0.00,270716,,*02
$GPGGA,070830.000,5547.322,N,04906.704,E,1,00,4.0,57.000,M,0.0,M,,*5E
$GPGSA,A,3,,,,,,,,,,,,,0.0,4.0,0.0*36
$GPRMC,070831.000,A,5547.322,N,04906.702,E,0.00,0.00,270716,,*05
$GPGGA,070831.000,5547.322,N,04906.702,E,1,00,4.0,58.000,M,0.0,M,,*56
$GPGSA,A,3,,,,,,,,,,,,,0.0,4.0,0.0*36
$GPRMC,070832.000,A,5547.322,N,04906.701,E,0.00,0.00,270716,,*05
$GPGGA,070832.000,5547.322,N,04906.701,E,1,00,4.0,60.000,M,0.0,M,,*5D
$GPGSA,A,3,,,,,,,,,,,,,0.0,4.0,0.0*36
$GPRMC,070833.000,A,5547.321,N,04906.700,E,0.00,0.00,270716,,*06
$GPGGA,070833.000,5547.321,N,04906.700,E,1,00,4.0,59.000,M,0.0,M,,*54
$GPGSA,A,3,,,,,,,,,,,,,0.0,4.0,0.0*36
$GPRMC,070834.000,A,5547.320,N,04906.700,E,0.00,0.00,270716,,*00
$GPGGA,070834.000,5547.320,N,04906.700,E,1,00,4.0,60.000,M,0.0,M,,*58
$GPGSA,A,3,,,,,,,,,,,,,0.0,4.0,0.0*36
$GPRMC,070835.000,A,5547.319,N,04906.699,E,0.00,0.00,270716,,*0A
$GPGGA,070835.000,5547.319,N,04906.699,E,1,00,4.0,59.000,M,0.0,M,,*58
$GPGSA,A,3,,,,,,,,,,,,,0.0,4.0,0.0*36
$GPRMC,070836.000,A,5547.318,N,04906.698,E,0.00,0.00,270716,,*09
$GPGGA,070836.000,5547.318,N,04906.698,E,1,00,4.0,59.000,M,0.0,M,,*5B
$GPGSA,A,3,,,,,,,,,,,,,0.0,4.0,0.0*36
$GPRMC,070836.000,A,5547.317,N,04906.696,E,0.00,0.00,270716,,*08
$GPGGA,070836.000,5547.317,N,04906.696,E,1,00,4.0,59.000,M,0.0,M,,*5A
$GPGSA,A,3,,,,,,,,,,,,,0.0,4.0,0.0*36
$GPRMC,070838.000,A,5547.317,N,04906.698,E,0.00,0.00,270716,,*08
$GPGGA,070838.000,5547.317,N,04906.698,E,1,00,4.0,61.000,M,0.0,M,,*51
$GPGSA,A,3,,,,,,,,,,,,,0.0,4.0,0.0*36
$GPRMC,070839.000,A,5547.317,N,04906.697,E,0.00,0.00,270716,,*06
$GPGGA,070839.000,5547.317,N,04906.697,E,1,00,4.0,63.000,M,0.0,M,,*5D
$GPGSA,A,3,,,,,,,,,,,,,0.0,4.0,0.0*36
$GPRMC,070840.000,A,5547.317,N,04906.697,E,0.00,0.00,270716,,*08
$GPGGA,070840.000,5547.317,N,04906.697,E,1,00,4.0,63.000,M,0.0,M,,*53
$GPGSA,A,3,,,,,,,,,,,,,0.0,4.0,0.0*36
$GPRMC,070841.000,A,5547.316,N,04906.696,E,0.00,0.00,270716,,*09
$GPGGA,070841.000,5547.316,N,04906.696,E,1,00,5.0,63.000,M,0.0,M,,*53
$GPGSA,A,3,,,,,,,,,,,,,0.0,5.0,0.0*37
$GPRMC,070842.000,A,5547.316,N,04906.695,E,0.00,0.00,270716,,*09
$GPGGA,070842.000,5547.316,N,04906.695,E,1,00,6.0,63.000,M,0.0,M,,*50
$GPGSA,A,3,,,,,,,,,,,,,0.0,6.0,0.0*34
$GPRMC,070843.000,A,5547.315,N,04906.694,E,0.00,0.00,270716,,*0A
$GPGGA,070843.000,5547.315,N,04906.694,E,1,00,6.0,63.000,M,0.0,M,,*53
$GPGSA,A,3,,,,,,,,,,,,,0.0,6.0,0.0*34
$GPRMC,070845.000,A,5547.314,N,04906.692,E,0.00,0.00,270716,,*0B
$GPGGA,070845.000,5547.314,N,04906.692,E,1,00,6.0,62.000,M,0.0,M,,*53
$GPGSA,A,3,,,,,,,,,,,,,0.0,6.0,0.0*34
$GPRMC,070845.000,A,5547.314,N,04906.691,E,0.00,0.00,270716,,*08
$GPGGA,070845.000,5547.314,N,04906.691,E,1,00,6.0,63.000,M,0.0,M,,*51
$GPGSA,A,3,,,,,,,,,,,,,0.0,6.0,0.0*34
$GPRMC,070846.000,A,5547.314,N,04906.690,E,0.00,0.00,270716,,*0A
$GPGGA,070846.000,5547.314,N,04906.690,E,1,00,6.0,63.000,M,0.0,M,,*53
$GPGSA,A,3,,,,,,,,,,,,,0.0,6.0,0.0*34
$GPRMC,070847.000,A,5547.313,N,04906.690,E,0.00,0.00,270716,,*0C
$GPGGA,070847.000,5547.313,N,04906.690,E,1,00,7.0,63.000,M,0.0,M,,*54
$GPGSA,A,3,,,,,,,,,,,,,0.0,7.0,0.0*35
$GPRMC,070848.000,A,5547.313,N,04906.688,E,0.00,0.00,270716,,*0A
$GPGGA,070848.000,5547.313,N,04906.688,E,1,00,7.0,63.000,M,0.0,M,,*52
$GPGSA,A,3,,,,,,,,,,,,,0.0,7.0,0.0*35
$GPRMC,070849.000,A,5547.312,N,04906.687,E,0.00,0.00,270716,,*05
$GPGGA,070849.000,5547.312,N,04906.687,E,1,00,7.0,63.000,M,0.0,M,,*5D
$GPGSA,A,3,,,,,,,,,,,,,0.0,7.0,0.0*35
$GPRMC,070850.000,A,5547.312,N,04906.687,E,0.00,0.00,270716,,*0D
$GPGGA,070850.000,5547.312,N,04906.687,E,1,00,7.0,64.000,M,0.0,M,,*52
$GPGSA,A,3,,,,,,,,,,,,,0.0,7.0,0.0*35
$GPRMC,070851.000,A,5547.312,N,04906.686,E,0.00,0.00,270716,,*0D
$GPGGA,070851.000,5547.312,N,04906.686,E,1,00,8.0,64.000,M,0.0,M,,*5D
$GPGSA,A,3,,,,,,,,,,,,,0.0,8.0,0.0*3A
$GPRMC,070852.000,A,5547.311,N,04906.685,E,0.00,0.00,270716,,*0E
$GPGGA,070852.000,5547.311,N,04906.685,E,1,00,9.0,64.000,M,0.0,M,,*5F
$GPGSA,A,3,,,,,,,,,,,,,0.0,9.0,0.0*3B
$GPRMC,070853.000,A,5547.311,N,04906.686,E,0.00,0.00,270716,,*0C
$GPGGA,070853.000,5547.311,N,04906.686,E,1,00,10.0,65.000,M,0.0,M,,*64
$GPGSA,A,3,,,,,,,,,,,,,0.0,10.0,0.0*03
$GPRMC,070854.000,A,5547.311,N,04906.686,E,0.00,0.00,270716,,*0B
$GPGGA,070854.000,5547.311,N,04906.686,E,1,00,11.0,65.000,M,0.0,M,,*62
$GPGSA,A,3,,,,,,,,,,,,,0.0,11.0,0.0*02
$GPRMC,070855.000,A,5547.311,N,04906.689,E,0.00,0.00,270716,,*05
$GPGGA,070855.000,5547.311,N,04906.689,E,1,00,10.0,65.000,M,0.0,M,,*6D
$GPGSA,A,3,,,,,,,,,,,,,0.0,10.0,0.0*03
$GPRMC,070856.000,A,5547.311,N,04906.689,E,0.00,0.00,270716,,*06
$GPGGA,070856.000,5547.311,N,04906.689,E,1,00,11.0,67.000,M,0.0,M,,*6D
$GPGSA,A,3,,,,,,,,,,,,,0.0,11.0,0.0*02
$GPRMC,070857.000,A,5547.311,N,04906.688,E,0.00,0.00,270716,,*06
$GPGGA,070857.000,5547.311,N,04906.688,E,1,00,12.0,67.000,M,0.0,M,,*6E
$GPGSA,A,3,,,,,,,,,,,,,0.0,12.0,0.0*01
$GPRMC,070858.000,A,5547.310,N,04906.688,E,0.00,0.00,270716,,*08
$GPGGA,070858.000,5547.310,N,04906.688,E,1,00,12.0,66.000,M,0.0,M,,*61
$GPGSA,A,3,,,,,,,,,,,,,0.0,12.0,0.0*01
$GPRMC,070858.000,A,5547.310,N,04906.689,E,0.00,0.00,270716,,*09
$GPGGA,070858.000,5547.310,N,04906.689,E,1,00,14.0,67.000,M,0.0,M,,*67
$GPGSA,A,3,,,,,,,,,,,,,0.0,14.0,0.0*07
$GPRMC,070900.000,A,5547.308,N,04906.686,E,0.00,0.00,270716,,*03
$GPGGA,070900.000,5547.308,N,04906.686,E,1,00,15.0,67.000,M,0.0,M,,*6C
$GPGSA,A,3,,,,,,,,,,,,,0.0,15.0,0.0*06
$GPRMC,070901.000,A,5547.308,N,04906.686,E,0.00,0.00,270716,,*02
$GPGGA,070901.000,5547.308,N,04906.686,E,1,00,14.0,66.000,M,0.0,M,,*6D
$GPGSA,A,3,,,,,,,,,,,,,0.0,14.0,0.0*07
$GPRMC,070902.000,A,5547.307,N,04906.683,E,0.00,0.00,270716,,*0B
$GPGGA,070902.000,5547.307,N,04906.683,E,1,00,11.0,67.000,M,0.0,M,,*60
$GPGSA,A,3,,,,,,,,,,,,,0.0,11.0,0.0*02
$GPRMC,070902.000,A,5547.306,N,04906.682,E,0.00,0.00,270716,,*0B
$GPGGA,070902.000,5547.306,N,04906.682,E,1,00,11.0,69.000,M,0.0,M,,*6E
$GPGSA,A,3,,,,,,,,,,,,,0.0,11.0,0.0*02
$GPRMC,070904.000,A,5547.305,N,04906.679,E,0.00,0.00,270716,,*0A
$GPGGA,070904.000,5547.305,N,04906.679,E,1,00,12.0,69.000,M,0.0,M,,*6C
$GPGSA,A,3,,,,,,,,,,,,,0.0,12.0,0.0*01
$GPRMC,070905.000,A,5547.303,N,04906.675,E,0.00,0.00,270716,,*01
$GPGGA,070905.000,5547.303,N,04906.675,E,1,00,12.0,70.000,M,0.0,M,,*6F
$GPGSA,A,3,,,,,,,,,,,,,0.0,12.0,0.0*01
$GPRMC,070906.000,A,5547.303,N,04906.675,E,0.00,0.00,270716,,*02
$GPGGA,070906.000,5547.303,N,04906.675,E,1,00,12.0,71.000,M,0.0,M,,*6D
$GPGSA,A,3,,,,,,,,,,,,,0.0,12.0,0.0*01
$GPRMC,070906.000,A,5547.305,N,04906.682,E,0.00,0.00,270716,,*0C
$GPGGA,070906.000,5547.305,N,04906.682,E,1,00,13.0,72.000,M,0.0,M,,*61
$GPGSA,A,3,,,,,,,,,,,,,0.0,13.0,0.0*00
$GPRMC,070908.000,A,5547.304,N,04906.680,E,0.00,0.00,270716,,*01
$GPGGA,070908.000,5547.304,N,04906.680,E,1,00,12.0,71.000,M,0.0,M,,*6E
$GPGSA,A,3,,,,,,,,,,,,,0.0,12.0,0.0*01
$GPRMC,070909.000,A,5547.305,N,04906.684,E,0.00,0.00,270716,,*05
$GPGGA,070909.000,5547.305,N,04906.684,E,1,00,9.0,68.000,M,0.0,M,,*58
$GPGSA,A,3,,,,,,,,,,,,,0.0,9.0,0.0*3B
$GPRMC,070910.000,A,5547.305,N,04906.684,E,0.00,0.00,270716,,*0D
$GPGGA,070910.000,5547.305,N,04906.684,E,1,00,10.0,67.000,M,0.0,M,,*67
$GPGSA,A,3,,,,,,,,,,,,,0.0,10.0,0.0*03
$GPRMC,070911.000,A,5547.305,N,04906.686,E,0.00,0.00,270716,,*0E
$GPGGA,070911.000,5547.305,N,04906.686,E,1,00,11.0,65.000,M,0.0,M,,*67
$GPGSA,A,3,,,,,,,,,,,,,0.0,11.0,0.0*02
$GPRMC,070912.000,A,5547.304,N,04906.686,E,0.00,0.00,270716,,*0C
$GPGGA,070912.000,5547.304,N,04906.686,E,1,00,12.0,64.000,M,0.0,M,,*67
$GPGSA,A,3,,,,,,,,,,,,,0.0,12.0,0.0*01
$GPRMC,070913.000,A,5547.306,N,04906.691,E,0.00,0.00,270716,,*09
$GPGGA,070913.000,5547.306,N,04906.691,E,1,00,13.0,64.000,M,0.0,M,,*63
$GPGSA,A,3,,,,,,,,,,,,,0.0,13.0,0.0*00
$GPRMC,070914.000,A,5547.304,N,04906.688,E,0.00,0.00,270716,,*04
$GPGGA,070914.000,5547.304,N,04906.688,E,1,00,14.0,64.000,M,0.0,M,,*69
$GPGSA,A,3,,,,,,,,,,,,,0.0,14.0,0.0*07
$GPRMC,070915.000,A,5547.303,N,04906.684,E,0.00,0.00,270716,,*0E
$GPGGA,070915.000,5547.303,N,04906.684,E,1,00,14.0,64.000,M,0.0,M,,*63
$GPGSA,A,3,,,,,,,,,,,,,0.0,14.0,0.0*07
$GPRMC,070916.000,A,5547.303,N,04906.684,E,0.00,0.00,270716,,*0D
$GPGGA,070916.000,5547.303,N,04906.684,E,1,00,12.0,64.000,M,0.0,M,,*66
$GPGSA,A,3,,,,,,,,,,,,,0.0,12.0,0.0*01
$GPRMC,070917.000,A,5547.302,N,04906.683,E,0.00,0.00,270716,,*0A
$GPGGA,070917.000,5547.302,N,04906.683,E,1,00,11.0,63.000,M,0.0,M,,*65
$GPGSA,A,3,,,,,,,,,,,,,0.0,11.0,0.0*02
$GPRMC,070918.000,A,5547.302,N,04906.681,E,0.00,0.00,270716,,*07
$GPGGA,070918.000,5547.302,N,04906.681,E,1,00,11.0,64.000,M,0.0,M,,*6F
$GPGSA,A,3,,,,,,,,,,,,,0.0,11.0,0.0*02
$GPRMC,070919.000,A,5547.301,N,04906.681,E,0.00,0.00,270716,,*05
$GPGGA,070919.000,5547.301,N,04906.681,E,1,00,12.0,63.000,M,0.0,M,,*69
$GPGSA,A,3,,,,,,,,,,,,,0.0,12.0,0.0*01
$GPRMC,070920.000,A,5547.299,N,04906.677,E,0.00,0.00,270716,,*06
$GPGGA,070920.000,5547.299,N,04906.677,E,1,00,13.0,64.000,M,0.0,M,,*6C
$GPGSA,A,3,,,,,,,,,,,,,0.0,13.0,0.0*00
$GPRMC,070921.000,A,5547.298,N,04906.675,E,0.00,0.00,270716,,*04
$GPGGA,070921.000,5547.298,N,04906.675,E,1,00,14.0,64.000,M,0.0,M,,*69
$GPGSA,A,3,,,,,,,,,,,,,0.0,14.0,0.0*07
$GPRMC,070922.000,A,5547.297,N,04906.675,E,0.00,0.00,270716,,*08
$GPGGA,070922.000,5547.297,N,04906.675,E,1,00,15.0,63.000,M,0.0,M,,*63
$GPGSA,A,3,,,,,,,,,,,,,0.0,15.0,0.0*06
$GPRMC,070923.000,A,5547.296,N,04906.673,E,0.00,0.00,270716,,*0E
$GPGGA,070923.000,5547.296,N,04906.673,E,1,00,17.0,63.000,M,0.0,M,,*67
$GPGSA,A,3,,,,,,,,,,,,,0.0,17.0,0.0*04
$GPRMC,070924.000,A,5547.294,N,04906.668,E,0.00,0.00,270716,,*01
$GPGGA,070924.000,5547.294,N,04906.668,E,1,00,14.0,65.000,M,0.0,M,,*6D
$GPGSA,A,3,,,,,,,,,,,,,0.0,14.0,0.0*07
$GPRMC,070925.000,A,5547.293,N,04906.667,E,0.00,0.00,270716,,*08
$GPGGA,070925.000,5547.293,N,04906.667,E,1,00,13.0,65.000,M,0.0,M,,*63
$GPGSA,A,3,,,,,,,,,,,,,0.0,13.0,0.0*00
$GPRMC,070926.000,A,5547.293,N,04906.666,E,0.00,0.00,270716,,*0A
$GPGGA,070926.000,5547.293,N,04906.666,E,1,00,13.0,65.000,M,0.0,M,,*61
$GPGSA,A,3,,,,,,,,,,,,,0.0,13.0,0.0*00
$GPRMC,070927.000,A,5547.292,N,04906.664,E,0.00,0.00,270716,,*08
$GPGGA,070927.000,5547.292,N,04906.664,E,1,00,13.0,67.000,M,0.0,M,,*61
$GPGSA,A,3,,,,,,,,,,,,,0.0,13.0,0.0*00
$GPRMC,070928.000,A,5547.292,N,04906.663,E,0.00,0.00,270716,,*00
$GPGGA,070928.000,5547.292,N,04906.663,E,1,00,13.0,66.000,M,0.0,M,,*68
$GPGSA,A,3,,,,,,,,,,,,,0.0,13.0,0.0*00
$GPRMC,070929.000,A,5547.291,N,04906.662,E,0.00,0.00,270716,,*03
$GPGGA,070929.000,5547.291,N,04906.662,E,1,00,13.0,66.000,M,0.0,M,,*6B
$GPGSA,A,3,,,,,,,,,,,,,0.0,13.0,0.0*00
$GPRMC,070930.000,A,5547.291,N,04906.662,E,0.00,0.00,270716,,*0B
$GPGGA,070930.000,5547.291,N,04906.662,E,1,00,13.0,66.000,M,0.0,M,,*63
$GPGSA,A,3,,,,,,,,,,,,,0.0,13.0,0.0*00
$GPRMC,070931.000,A,5547.291,N,04906.663,E,0.00,0.00,270716,,*0B
$GPGGA,070931.000,5547.291,N,04906.663,E,1,00,14.0,66.000,M,0.0,M,,*64
